"Banque","Type","Adresse","Longitude","Latitude"
"Banque Populaire","Coopérative","55-57, RUE ALEXANDRE BÉRARD01500 AMBERIEU EN BUGEY",5.356969,45.96187
"Banque Populaire","Coopérative","57, RUE DE LA RÉPUBLIQUE01200 VALSERHONE",5.824057,46.106706
"Banque Populaire","Coopérative","7, BD DU MAIL01300 BELLEY",5.688074,45.760875
"Banque Populaire","Coopérative","BD EDOUARD HERRIOT01000 BOURG EN BRESSE",5.220434,46.210136
"Banque Populaire","Coopérative","12, PL NEUVE01000 BOURG EN BRESSE",5.227292,46.205273
"Banque Populaire","Coopérative","168, PL DE LA RÉPUBLIQUE01400 CHATILLON SUR CHALARONNE",4.957873,46.119841
"Banque Populaire","Coopérative","865, GRANDE RUE01570 FEILLENS",4.889963,46.3361
"Banque Populaire","Coopérative","20, RUE PASTEUR01150 LAGNIEU",5.348758,45.90351
"Banque Populaire","Coopérative","37, RUE DE LYON01800 MEXIMIEUX",5.19013,45.90175
"Banque Populaire","Coopérative","189, GRANDE RUE01120 MONTLUEL",5.056085,45.851377
"Banque Populaire","Coopérative","13, AVE DE BRESSE01460 MONTREAL LA CLUSE",5.574646,46.171224
"Banque Populaire","Coopérative","8, PL DU 3 SEPTEMBRE01340 MONTREVEL EN BRESSE",5.128687,46.337708
"Banque Populaire","Coopérative","142, RUE ANATOLE FRANCE01100 OYONNAX",5.655023,46.256573
"Banque Populaire","Coopérative","81, RUE DES TERREAUX01170 GEX",6.058042,46.332805
"Banque Populaire","Coopérative","27, GRANDE RUE01220 DIVONNE LES BAINS",6.138759,46.355629
"Banque Populaire","Coopérative","CENTRE D'AUMARD01210 FERNEY VOLTAIRE",6.108245,46.25431
"Banque Populaire","Coopérative","PL DE LA FONTAINE01630 ST GENIS POUILLY",6.020704,46.243169
"Banque Populaire","Coopérative","33, RUE DE L'EUROPEBÂT A01960 PERONNAS",5.202316,46.179288
"Banque Populaire","Coopérative","51, RUE MASONOD01110 PLATEAU D'HAUTEVILLE",5.599233,45.978275
"Banque Populaire","Coopérative","25, RUE DU PALAIS01600 TREVOUX",4.77862,45.940309
"Banque Populaire","Coopérative","87, RUE DU COMMERCE01330 VILLARS LES DOMBES",5.028284,46.002281
"Banque Populaire","Coopérative","45, RUE DU PLATEAU01440 VIRIAT",5.213611,46.214792
"Banque Populaire","Coopérative","PL JEAN DE LA FONTAINE02400 CHATEAU THIERRY",3.403049,49.044587
"Banque Populaire","Coopérative","7, RUE DE LA RÉPUBLIQUE02300 CHAUNY",3.21925,49.614797
"Banque Populaire","Coopérative","3, RUE ROGER SALENGRO02000 LAON",3.624597,49.568362
"Banque Populaire","Coopérative","13, RUE SAINT MARTIN02200 SOISSONS",3.328747,49.377555
"Banque Populaire","Coopérative","33, RUE EMILE ZOLA02100 ST QUENTIN",3.285592,49.846273
"Banque Populaire","Coopérative","19, PL DU 8 OCTOBRE02100 ST QUENTIN",3.294372,49.842069
"Banque Populaire","Coopérative","3, PL DU DR MOUFLIER02600 VILLERS COTTERETS",3.09055,49.254236
"Banque Populaire","Coopérative","37, PL DU FAUBOURG03360 AINAY LE CHATEAU",2.693549,46.711623
"Banque Populaire","Coopérative","12, RUE JEAN JAURÈS03600 COMMENTRY",2.741549,46.289837
"Banque Populaire","Coopérative","1, PL VICTOR HUGO03300 CUSSET",3.456956,46.131972
"Banque Populaire","Coopérative","3, AVE GÉNÉRAL DE GAULLECTRE CIAL CARRÉ D'AS03700 BELLERIVE SUR ALLIER",3.415074,46.115618
"Banque Populaire","Coopérative","21, PL DE LA RÉPUBLIQUE03290 DOMPIERRE SUR BESBRE",3.682222,46.521442
"Banque Populaire","Coopérative","54, GRANDE RUE03800 GANNAT",3.197316,46.100466
"Banque Populaire","Coopérative","2, PL ANNE DE FRANCE03000 MOULINS",3.330474,46.56577
"Banque Populaire","Coopérative","2, BD JEAN JAURÈS03400 YZEURE",3.353391,46.566814
"Banque Populaire","Coopérative","50, BD DE COURTAIS03100 MONTLUCON",2.603423,46.338334
"Banque Populaire","Coopérative","91, AVE JULES GUESDE03100 MONTLUCON",2.581929,46.339618
"Banque Populaire","Coopérative","BD VICTOR HUGO03410 DOMERAT",2.531947,46.36064
"Banque Populaire","Coopérative","8, QUAI LOUIS BLANCCENTRE COMMERCIAL ST JACQUES03100 MONTLUCON",2.599892,46.345493
"Banque Populaire","Coopérative","26, PL ROBERT FERRANDON03390 MONTMARAULT",2.953086,46.318083
"Banque Populaire","Coopérative","61, BD LEDRU ROLLIN03500 ST POURCAIN SUR SIOULE",3.289657,46.309144
"Banque Populaire","Coopérative","9, RUE BURNOL03203 VICHY",3.421886,46.124923
"Banque Populaire","Coopérative","115, RUE JEAN JAURÈS03200 VICHY",3.423199,46.13353
"Banque Populaire","Coopérative","55, RUE MANUEL04400 BARCELONNETTE",6.650498,44.386814
"Banque Populaire","Coopérative","40, BD GASSENDI04000 DIGNE LES BAINS",6.234479,44.092396
"Banque Populaire","Coopérative","ZA SAINT CHRISTOPHEAVE GUTENBERG04000 DIGNE LES BAINS",6.193278,44.078833
"Banque Populaire","Coopérative","8, BD ELÉMIR BOURGES04100 MANOSQUE",5.782408,43.831753
"Banque Populaire","Coopérative","AXE SUD ZI SAINT JOSEPH04100 MANOSQUE",5.797068,43.819316
"Banque Populaire","Coopérative","2, AVE DU GÉNÉRAL DE GAULLE04200 SISTERON",5.943348,44.195395
"Banque Populaire","Coopérative","PL LADOUCETTE - 1ER ÉTAGE05000 GAP",6.083093,44.562001
"Banque Populaire","Coopérative","70, IMPASSE SAINT ABDONLOTISSEMENT SAINT ABDON05130 TALLARD",6.049164,44.45687
"Banque Populaire","Coopérative","20, AVE MAURICE PETSCHE05100 BRIANCON",6.633136,44.895947
"Banque Populaire","Coopérative","8 CHEMIN DE L'ORATOIRE LIEU-DIT LES JARDINS, 05240 LA SALLE-LES-ALPES",6.556282,44.945419
"Banque Populaire","Coopérative","38, RUE CLOVIS HUGUES05200 EMBRUN",6.496538,44.564936
"Banque Populaire","Coopérative","20, AVENUE EMILE DIDIER05000 GAP",6.09192,44.565235
"Banque Populaire","Coopérative","PL LADOUCETTE05000 GAP",6.077479,44.559727
"Banque Populaire","Coopérative","PARC DE FONTREYNE05000 GAP",6.069398,44.549765
"Banque Populaire","Coopérative","1, RTE DE LA GARE05600 GUILLESTRE",6.64839,44.659829
"Banque Populaire","Coopérative","12, PL DE GAULLE06600 ANTIBES",7.120685,43.580819
"Banque Populaire","Coopérative","3, AVE DES FRÈRES GARBERO06600 ANTIBES",7.122215,43.600149
"Banque Populaire","Coopérative","2222, ROUTE DE GRASSE06600 ANTIBES",7.084834,43.601166
"Banque Populaire","Coopérative","42, BD MARINONI06310 BEAULIEU SUR MER",7.329724,43.706501
"Banque Populaire","Coopérative","1, BD DU GÉNÉRAL LECLERC06240 BEAUSOLEIL",7.425287,43.741502
"Banque Populaire","Coopérative","24-26, RUE DU BRIGADIER CLAVERIELE TAMANGO06800 CAGNES SUR MER",7.152201,43.662484
"Banque Populaire","Coopérative","25, RUE BIVOUAC NAPOLÉON06400 CANNES",7.018416,43.552062
"Banque Populaire","Coopérative","10, BD CARNOT06400 CANNES",7.017304,43.555032
"Banque Populaire","Coopérative","28, AVENUE MICHEL JOURDAN06150 CANNES",6.978672,43.550981
"Banque Populaire","Coopérative","141, RUE D'ANTIBES06400 CANNES",7.029062,43.551536
"Banque Populaire","Coopérative","73, PROMENADE DE LA PLAGE06800 CAGNES SUR MER",7.165315,43.657068
"Banque Populaire","Coopérative","36, AVE DE LA GARE06220 GOLFE JUAN",7.076291,43.572247
"Banque Populaire","Coopérative","CARREFOUR DES 4 CHEMINSBD MARCEL PAGNOL06130 GRASSE",6.026269,43.137528
"Banque Populaire","Coopérative","5, AVENUE DE L'ESTEREL06160 JUAN LES PINS - ANTIBES",7.134253,43.560002
"Banque Populaire","Coopérative","19, PLACE DU DOCTEUR REBAT06340 LA TRINITE",7.31779,43.74407
"Banque Populaire","Coopérative","67 BIS, AVE FRANKLIN ROOSEVELT06110 LE CANNET",7.00058,43.572337
"Banque Populaire","Coopérative","302, AVENUE DE CANNESLES ORMES06210 MANDELIEU",6.937471,43.543866
"Banque Populaire","Coopérative","31, AVE FÉLIX FAURE06500 MENTON",7.501897,43.774689
"Banque Populaire","Coopérative","81, AVE CERNUSCHIIMMEUBLE LE VAL D'ANNAUD06500 MENTON",7.487746,43.776147
"Banque Populaire","Coopérative","459, AVENUE DE CANNES06370 MOUANS SARTOUX",6.97359,43.616833
"Banque Populaire","Coopérative","AÉROPORT BT206200 NICE",4.439294,43.786383
"Banque Populaire","Coopérative","457, PROMENADE DES ANGLAIS06200 NICE",7.234566,43.683978
"Banque Populaire","Coopérative","42, RUE ARSON06300 NICE",7.28799,43.702656
"Banque Populaire","Coopérative","8, RUE DE LA BUFFA06000 NICE",7.263946,43.697541
"Banque Populaire","Coopérative","244, AVE DE LA CALIFORNIE06200 NICE",7.229648,43.679633
"Banque Populaire","Coopérative","100, RUE DE FRANCE06000 NICE",7.251734,43.693982
"Banque Populaire","Coopérative","92, BD GAMBETTA06000 NICE",7.256192,43.705352
"Banque Populaire","Coopérative","67, BD GORBELLA06100 NICE",7.255868,43.724573
"Banque Populaire","Coopérative","8, PL ILE DE BEAUTÉ06300 NICE",7.28516,43.698694
"Banque Populaire","Coopérative","22, BD VICTOR HUGO06000 NICE",7.264188,43.699434
"Banque Populaire","Coopérative","20, BD JEAN JAURÈS06300 NICE",7.276664,43.698359
"Banque Populaire","Coopérative","17, AVENUE JEAN MÉDECIN06000 NICE",7.268291,43.699898
"Banque Populaire","Coopérative","145, AVENUE DU MARÉCHAL LYAUTEY06000 NICE",7.284708,43.72028
"Banque Populaire","Coopérative","26, AVENUE MALAUSSENA06000 NICE",7.262935,43.708877
"Banque Populaire","Coopérative","170, BD NAPOLÉON IIIRÉSIDENCE STANESCO06200 NICE",7.218443,43.67789
"Banque Populaire","Coopérative","5, BD SAINT ROCH06300 NICE",7.292612,43.709166
"Banque Populaire","Coopérative","53, AVE REINE VICTORIA06000 NICE",7.274593,43.72482
"Banque Populaire","Coopérative","17, RUE DE L'HÔTEL DES POSTES06000 NICE",7.274033,43.700544
"Banque Populaire","Coopérative","32 BIS, AVENUE DE BOUTINY06530 PEYMEINADE",6.878427,43.641138
"Banque Populaire","Coopérative","181, AVE ARISTIDE BRIAND06190 ROQUEBRUNE CAP MARTIN",7.482253,43.764825
"Banque Populaire","Coopérative","101, QUAI DE LA BANQUIÈRE06730 ST ANDRE DE LA ROCHE",7.287427,43.74049
"Banque Populaire","Coopérative","5, AVE CLAUDE VIGNON06230 ST JEAN CAP FERRAT",7.333661,43.688602
"Banque Populaire","Coopérative","557, AVENUE DE LA LIBÉRATION06700 ST LAURENT DU VAR",7.189856,43.670564
"Banque Populaire","Coopérative","CTRE CIAL RÉGIONAL CAP 3000QUARTIER DU LAC06700 ST LAURENT DU VAR",2.457165,48.780041
"Banque Populaire","Coopérative","630, ROUTE DES DOLINESOPHIRA II06560 VALBONNE",7.037166,43.621787
"Banque Populaire","Coopérative","51, BD DR JACQUES UGO06220 VALLAURIS",7.059671,43.574971
"Banque Populaire","Coopérative","12 BIS, AVENUE DE LA RÉSISTANCE06140 VENCE",7.109824,43.722868
"Banque Populaire","Coopérative","12, AVE DU MARÉCHAL FOCH06230 VILLEFRANCHE SUR MER",7.307473,43.702059
"Banque Populaire","Coopérative","BOULEVARD GAMBETTA07200 AUBENAS",4.390647,44.619608
"Banque Populaire","Coopérative","5, GRANDE RUE07700 BOURG SAINT ANDEOL",4.645616,44.371678
"Banque Populaire","Coopérative","29, AVENUE BOISSEL07260 JOYEUSE",4.24188,44.479846
"Banque Populaire","Coopérative","PLACE PIERRE SEMARD07400 LE TEIL",4.684793,44.552122
"Banque Populaire","Coopérative","PLACE LEOPOLD OLLIER07140 LES VANS",4.130266,44.405234
"Banque Populaire","Coopérative","15, PLACE VICTOR HUGO07000 PRIVAS",4.595911,44.735002
"Banque Populaire","Coopérative","6, RUE NATIONALE07120 RUOMS",4.340422,44.454271
"Banque Populaire","Coopérative","90, RUE JEAN JAURES07600 VALS LES BAINS",4.366456,44.661948
"Banque Populaire","Coopérative","21, AVE DE L'EUROPE07100 ANNONAY",4.671259,45.241619
"Banque Populaire","Coopérative","53, BD GAMBETTA07200 AUBENAS",4.390166,44.61942
"Banque Populaire","Coopérative","30, PL SEIGNOBOS07270 LAMASTRE",4.580977,44.985101
"Banque Populaire","Coopérative","21, RUE DE LA RÉPUBLIQUE07400 LE TEIL",4.685606,44.553181
"Banque Populaire","Coopérative","19, COURS DU PALAIS07000 PRIVAS",4.600748,44.734528
"Banque Populaire","Coopérative","ZAC LA FUGIERE07000 PRIVAS",4.607595,44.719783
"Banque Populaire","Coopérative","966, RTE DE MONTÉLIMARQUARTIER DES CHAMPS07200 SAINT DIDIER SOUS AUBENAS",4.413297,44.608656
"Banque Populaire","Coopérative","PL CARNOT07300 TOURNON SUR RHONE",4.835689,45.064545
"Banque Populaire","Coopérative","2, RUE DENIS PAPIN07130 ST PERAY",4.858236,44.944234
"Banque Populaire","Coopérative","AVE JEAN JAURÈS07150 VALLON PONT D'ARC",4.391872,44.406104
"Banque Populaire","Coopérative","19, COURS ARISTIDE BRIAND08000 CHARLEVILLE MEZIERES",4.719518,49.770153
"Banque Populaire","Coopérative","35, RUE GAMBETTA08300 RETHEL",4.379403,49.514256
"Banque Populaire","Coopérative","6, PL GOULDEN08200 SEDAN",4.94392,49.701749
"Banque Populaire","Coopérative","9, AVE DELCASSÉ09110 AX LES THERMES",1.838271,42.72115
"Banque Populaire","Coopérative","72, BOULEVARD ALSACE LORRAINEPLACE DE MILLIANE09100 PAMIERS",1.614154,43.118419
"Banque Populaire","Coopérative","14, ALLÉE VILLOTE09000 FOIX",1.607494,42.963503
"Banque Populaire","Coopérative","CTRE CIAL LES CASTILLANES09600 LAROQUE D'OLMES",1.866749,42.969183
"Banque Populaire","Coopérative","24, RUE JEAN JAURÈS09300 LAVELANET",1.846493,42.931691
"Banque Populaire","Coopérative","3, RTE DE TOULOUSELA RIVERETTE09210 LEZAT SUR LEZE",1.326643,43.310634
"Banque Populaire","Coopérative","45, PL DU MARÉCHAL LECLERC09500 MIREPOIX",1.874908,43.088199
"Banque Populaire","Coopérative","2, RUE SARRUT09700 SAVERDUN",1.575051,43.235233
"Banque Populaire","Coopérative","62, RUE DE VILLEFRANCHE09200 ST GIRONS",1.142395,42.984594
"Banque Populaire","Coopérative","19, RUE MILLE HOMMES09100 ST JEAN DU FALGA",1.625675,43.097379
"Banque Populaire","Coopérative","2, AVE VICTOR PILHES09400 TARASCON SUR ARIEGE",1.605644,42.847575
"Banque Populaire","Coopérative","3, RUE GEORGES CLEMENCEAU10160 AIX VILLEMAUR PALIS",3.730568,48.222041
"Banque Populaire","Coopérative","5, RUE DE CHÂLONS10700 ARCIS SUR AUBE",4.141673,48.536844
"Banque Populaire","Coopérative","3-5, RUE D'AUBE10200 BAR SUR AUBE",4.706061,48.232953
"Banque Populaire","Coopérative","92 BIS, RUE DE L'ECOLE MILITAIRE10500 BRIENNE LE CHATEAU",4.526086,48.393919
"Banque Populaire","Coopérative","9, RUE DE LA PRESLE10340 LES RICEYS",4.362311,47.993869
"Banque Populaire","Coopérative","11, RUE SAINT EPOING10400 NOGENT SUR SEINE",3.501123,48.493912
"Banque Populaire","Coopérative","41, RUE GORNET BOIVIN10100 ROMILLY SUR SEINE",3.729027,48.518297
"Banque Populaire","Coopérative","61 BIS, AVE DE GAULLE10410 ST PARRES AUX TERTRES",4.118959,48.298291
"Banque Populaire","Coopérative","CTRE CIAL CARREFOURAVE CHARLES DE REFUGE10120 ST ANDRE LES VERGERS",4.051935,48.281056
"Banque Populaire","Coopérative","79 BIS, AVE GALLIÉNI10300 STE SAVINE",1.06756,47.79027
"Banque Populaire","Coopérative","242, RUE DU FAUBOURG CRONCELS10000 TROYES",4.080289,48.279424
"Banque Populaire","Coopérative","13, AVE COLBERT10000 TROYES",4.087616,48.304103
"Banque Populaire","Coopérative","16, PL DE LA LIBÉRATION10000 TROYES",4.078809,48.298315
"Banque Populaire","Coopérative","199 BIS, AVE DU GÉNÉRAL LECLERC10000 TROYES",4.053131,48.310059
"Banque Populaire","Coopérative","19, COURS DE LA RÉPUBLIQUE11200 LEZIGNAN CORBIERES",2.757925,43.200819
"Banque Populaire","Coopérative","16, BOULEVARD GAMBETTA11100 NARBONNE",3.007621,43.182551
"Banque Populaire","Coopérative","12, RUE ERNEST COGNACQZAC DE BONNE SOURCE11100 NARBONNE",3.034242,43.180525
"Banque Populaire","Coopérative","7, AVENUE DU SOUVENIR FRANÇAIS11000 CARCASSONNE",2.382524,43.208657
"Banque Populaire","Coopérative","11, AVE DU GÉNÉRAL DE GAULLE11150 BRAM",2.114876,43.24322
"Banque Populaire","Coopérative","10, RUE DE VERDUN11002 CARCASSONNE",2.354552,43.212693
"Banque Populaire","Coopérative","RUE CAMILLE FLAMMARIONAVE SOUVENIR FRANÇAIS11000 CARCASSONNE",2.386955,43.208437
"Banque Populaire","Coopérative","13, RUE DE MAGELLANZI PONT ROUGE11000 CARCASSONNE",2.366363,43.235573
"Banque Populaire","Coopérative","28, RUE J-F DUPLEIX11000 CARCASSONNE",2.350535,43.2076
"Banque Populaire","Coopérative","169, AVE F. ROOSEVELT11000 CARCASSONNE",2.336121,43.223026
"Banque Populaire","Coopérative","33, RUE DE DUNKERQUE11400 CASTELNAUDARY",1.955018,43.317396
"Banque Populaire","Coopérative","30, AVENUE DE TOULOUSE11110 COURSAN",3.052303,43.230158
"Banque Populaire","Coopérative","2, PL DE LA RÉPUBLIQUE11260 ESPERAZA",2.221166,42.933912
"Banque Populaire","Coopérative","CTRE CIAL CARREFOUR11370 LEUCATE",3.030069,42.933992
"Banque Populaire","Coopérative","2, RUE DES ROMAINS ZI DES CORBIÈRES11200 LEZIGNAN",2.753582,43.186945
"Banque Populaire","Coopérative","20, AVENUE DU PONT DE FRANCE11300 LIMOUX",2.214439,43.056727
"Banque Populaire","Coopérative","110, AVE ANATOLE FRANCE11100 NARBONNE",2.985996,43.189365
"Banque Populaire","Coopérative","ST CRESCENTAVE D'ESPAGNE-CENTRE D''AFFAIRES11100 NARBONNE",2.989798,43.170173
"Banque Populaire","Coopérative","35, COURS DE LA RÉPUBLIQUE11100 NARBONNE",3.006249,43.182439
"Banque Populaire","Coopérative","AVE D'ESPAGNECTRE D'AFFAIRES ST CRESCENT11100 NARBONNE",3.171211,43.164641
"Banque Populaire","Coopérative","25, AVE MAÎTRE HUBERT MOULY11100 NARBONNE",3.017815,43.180091
"Banque Populaire","Coopérative","193, BD DU MONUMENT AUX MORTS11210 PORT LA NOUVELLE",3.046425,43.020063
"Banque Populaire","Coopérative","5, BD JEAN JAURÈS11500 QUILLAN",2.183469,42.875506
"Banque Populaire","Coopérative","6, PL DU GÉNÉRAL BOUSQUET11160 RIEUX MINERVOIS",2.586919,43.282047
"Banque Populaire","Coopérative","73, RTE DE NARBONNE11130 SIGEAN",2.9763,43.02085
"Banque Populaire","Coopérative","2, AVE PIERRE CURIE11800 TREBES",2.443106,43.209839
"Banque Populaire","Coopérative","264, AVE DU CENTRE12160 BARAQUEVILLE",2.434105,44.277076
"Banque Populaire","Coopérative","12, AVE CHARLES DE GAULLE12700 CAPDENAC GARE",2.078337,44.576668
"Banque Populaire","Coopérative","9, RUE CABROL12300 DECAZEVILLE",2.25619,44.556911
"Banque Populaire","Coopérative","13, BD DE GUIZARD12500 ESPALION",2.764419,44.523597
"Banque Populaire","Coopérative","21, AVE DE RODEZ12450 LA PRIMAUBE",2.558527,44.294933
"Banque Populaire","Coopérative","ROUTE NATIONALE12210 LAGUIOLE",2.851378,44.682356
"Banque Populaire","Coopérative","1, RUE DU SACRÉ COEUR12100 MILLAU",3.079466,44.100875
"Banque Populaire","Coopérative","PL DES MARTYRS DE LA RÉSISTANCE12100 MILLAU",3.07399,44.094292
"Banque Populaire","Coopérative","RTE D'ESPALION12850 ONET LE CHATEAU",2.587481,44.366019
"Banque Populaire","Coopérative","RUE DE L'EGLISE12290 PONT DE SALARS",2.729292,44.279283
"Banque Populaire","Coopérative","4, BD VICOMTE DE CADARS12170 REQUISTA",2.537126,44.032464
"Banque Populaire","Coopérative","9, AVE DE ROUERGUE12240 RIEUPEYROUX",2.241033,44.308924
"Banque Populaire","Coopérative","44, AVE DE LA PROMENADE12390 RIGNAC",2.293481,44.409839
"Banque Populaire","Coopérative","210, AVE DE BOURRAN12000 RODEZ",2.556924,44.359427
"Banque Populaire","Coopérative","2, PL DE LA CITÉ12000 RODEZ",2.576229,44.350744
"Banque Populaire","Coopérative","AVE PIERRE SEMARD12150 SEVERAC LE CHATEAU",3.058912,44.32539
"Banque Populaire","Coopérative","2, RUE GASTON DELURE12400 ST AFFRIQUE",2.885144,43.958307
"Banque Populaire","Coopérative","13, RUE DE L'HÔTEL DE VILLE12130 ST GENIEZ D'OLT",2.972352,44.465956
"Banque Populaire","Coopérative","PARC D'ACTIVITÉS DU BOURGUET12400 VABRES L'ABBAYE",-2.142281,47.908007
"Banque Populaire","Coopérative","PROMENADE DU GUIRAUDET12200 VILLEFRANCHE DE ROUERGUE",2.036231,44.349809
"Banque Populaire","Coopérative","RTE DE MONTAUBAN12200 VILLEFRANCHE DE ROUERGUE",2.008862,44.360592
"Banque Populaire","Coopérative","6 BIS, COURS GAMBETTA13100 AIX EN PROVENCE",5.45461,43.524345
"Banque Populaire","Coopérative","1140, RUE ANDRÉ AMPÈREZI ACTIMART13290 AIX EN PROVENCE",5.38037,43.485543
"Banque Populaire","Coopérative","36, COURS MIRABEAU13090 AIX EN PROVENCE",5.449768,43.526661
"Banque Populaire","Coopérative","1, AVE PASTEUR13100 AIX EN PROVENCE",5.446017,43.532824
"Banque Populaire","Coopérative","14, BD DE LA RÉPUBLIQUE13100 AIX EN PROVENCE",5.441891,43.527764
"Banque Populaire","Coopérative","IMMEUBLE LES SANTONNIERSAVE LEÏ RIMA13190 ALLAUCH",5.488435,43.35716
"Banque Populaire","Coopérative","8, BD DES LICES13200 ARLES",4.628594,43.675565
"Banque Populaire","Coopérative","100, IMPASSE DES MARTINETSROUTE DE GÉMENOS13400 AUBAGNE",5.595257,43.29772
"Banque Populaire","Coopérative","17, AVE ROGER SALENGRO13400 AUBAGNE",5.569443,43.300301
"Banque Populaire","Coopérative","CTRE LE PUJOL 2LES ARTAUDS EST13390 AURIOL",5.645099,43.369512
"Banque Populaire","Coopérative","1C, AVE DE LATTRE DE TASSIGNYLIEUDIT LA MOUNINE13320 BOUC BEL AIR",5.405824,43.45988
"Banque Populaire","Coopérative","4 RUE EUCHER FERRIER13440 CABANNES",4.949217,43.860969
"Banque Populaire","Coopérative","47, AVENUE MARECHAL FOCH13260 CASSIS",5.543942,43.222674
"Banque Populaire","Coopérative","15 AVENUE AUGUSTE CHAPELLE13160 CHATEAURENARD",4.855243,43.884508
"Banque Populaire","Coopérative","1 RUE DU COUVENT13430 EYGUIERES",5.03197,43.694744
"Banque Populaire","Coopérative","12, BD BONTEMPS13120 GARDANNE",5.469052,43.454133
"Banque Populaire","Coopérative","6 BOULEVARD JEAN-JACQUES PRAT13800 ISTRES",4.987969,43.5105
"Banque Populaire","Coopérative","CENTRE COMMERCIAL ANCRE MARINE, CHEM. DU PUITS DE BRUNET, 13600 LA CIOTAT",5.598628,43.185492
"Banque Populaire","Coopérative","PL JEAN PELLEGRINIMMEUBLE LA BOURGADE13821 LA PENNE SUR HUVEAUNE",5.51618,43.280299
"Banque Populaire","Coopérative","3 AVENUE DU 11 NOVEMBRE 191813410 LAMBESC",5.262805,43.656276
"Banque Populaire","Coopérative","1, AVE PLAN DE CAMPAGNE, LE LOGIS NEUF13170 LES PENNES MIRABEAU",5.359585,43.414025
"Banque Populaire","Coopérative","27 BIS, COURS MIRABEAU13700 MARIGNANE",5.216504,43.416179
"Banque Populaire","Coopérative","AVENUE DU 8 MAI 1945ROND POINT DE L'HÉLICOPTÈRE13700 MARIGNANE",5.218222,43.411534
"Banque Populaire","Coopérative","264, BD BAILLE13005 MARSEILLE",5.39898,43.289857
"Banque Populaire","Coopérative","2, AVENUE DE LA ROSIÈRE13012 MARSEILLE",5.435175,43.307965
"Banque Populaire","Coopérative","8, BD DE LA BLANCARDE13004 MARSEILLE",5.397295,43.302618
"Banque Populaire","Coopérative","1, RUE AUGUSTIN FRESNEL13013 MARSEILLE",5.446819,43.342922
"Banque Populaire","Coopérative","30, BD GEORGES CLEMENCEAU13004 MARSEILLE",5.397542,43.299853
"Banque Populaire","Coopérative","166, QUAI DU PORT13002 MARSEILLE",5.366834,43.295867
"Banque Populaire","Coopérative","30, RUE D'ENDOUME13007 MARSEILLE",5.360327,43.28611
"Banque Populaire","Coopérative","2-4, PLACE D'ARVIEUX13002 MARSEILLE",5.367877,43.306102
"Banque Populaire","Coopérative","53, PLACE JEAN JAURÈS13005 MARSEILLE",5.386895,43.294265
"Banque Populaire","Coopérative","11, BD DU REDON13009 MARSEILLE",5.422467,43.249547
"Banque Populaire","Coopérative","5, RUE EMILE ZOLA13009 MARSEILLE",5.399735,43.24797
"Banque Populaire","Coopérative","26, AVE DU PRADO13006 MARSEILLE",5.384373,43.284073
"Banque Populaire","Coopérative","376 AVENUE DU PRADO13008 MARSEILLE",5.387093,43.270223
"Banque Populaire","Coopérative","105, RUE DE ROME13006 MARSEILLE",5.380652,43.291535
"Banque Populaire","Coopérative","247, AVE DU PRADO13008 MARSEILLE",5.390405,43.274825
"Banque Populaire","Coopérative","25, BD ST MARCELLOTISSEMENT ST MARCEL FERROVIAIRE13011 MARSEILLE",5.45702,43.288752
"Banque Populaire","Coopérative","8, PL CAIRE13012 MARSEILLE",5.419188,43.303556
"Banque Populaire","Coopérative","24, RUE LÉON PAULET13008 MARSEILLE",5.390492,43.26931
"Banque Populaire","Coopérative","138, AVENUE DE SAINT LOUIS13015 MARSEILLE",5.359162,43.347558
"Banque Populaire","Coopérative","173, BOULEVARD DE PONT DE VIVAUXIMMEUBLE OSMOZ13010 MARSEILLE",5.426699,43.281777
"Banque Populaire","Coopérative","152, BD DU SABLIER13008 MARSEILLE",5.382005,43.250593
"Banque Populaire","Coopérative","12, LA CANEBIÈRE13001 MARSEILLE",5.37536,43.295435
"Banque Populaire","Coopérative","18, AVE FRÉDÉRIC MISTRAL13500 MARTIGUES",5.057871,43.401745
"Banque Populaire","Coopérative","2, BD DU 14 JUILLET13500 MARTIGUES",5.05415,43.408246
"Banque Populaire","Coopérative","9, BD MONGIN13500 MARTIGUES",5.05319,43.402478
"Banque Populaire","Coopérative","42, AVENUE CHARLES DE GAULLE13140 MIRAMAS",5.001548,43.583066
"Banque Populaire","Coopérative","4 BOULEVARD DE L'ANCIEN MARCHE13870 ROGNONAS",4.802375,43.897933
"Banque Populaire","Coopérative","8 AVENUE FREDERIC MISTRAL13210 SAINT REMY DE PROVENCE",4.830597,43.792407
"Banque Populaire","Coopérative","LIEUDIT L'ADRECH ET PERRUSSON13119 SAINT SAVOURNIN",5.530456,43.411975
"Banque Populaire","Coopérative","38, BD DE LA RÉPUBLIQUE13300 SALON DE PROVENCE",5.094623,43.640553
"Banque Populaire","Coopérative","34, AVE SIMÉON GOUIN13960 SAUSSET LES PINS",5.106849,43.331146
"Banque Populaire","Coopérative","7 PLACE AUGUSTE JAUBERT13560 SENAS",5.076488,43.746406
"Banque Populaire","Coopérative","54, AVENUE DE LA RÉPUBLIQUE13310 ST MARTIN DE CRAU",4.807275,43.637627
"Banque Populaire","Coopérative","3BIS, RUE DES CHARPENTIERSZAC LE ROUBIAN13150 TARASCON",4.670828,43.809145
"Banque Populaire","Coopérative","252 ET 263 PRAGUES NORDZA DE LA BURLIÈRE - LOT N°613530 TRETS",5.68076,43.451927
"Banque Populaire","Coopérative","42, AVENUE MARCEL PAGNOLLIEU-DIT LE PARTERRE SUD13880 VELAUX",5.257992,43.527908
"Banque Populaire","Coopérative","47, RUE SAINT PATRICE14400 BAYEUX",-0.709249,49.279267
"Banque Populaire","Coopérative","6, RUE ALAIN CHARTIER14400 BAYEUX",-0.707335,49.279133
"Banque Populaire","Coopérative","LE PARC POMPIDOUBD GEORGES POMPIDOU14000 CAEN",-0.388618,49.175663
"Banque Populaire","Coopérative","2, PL DE LA RÉSISTANCE14000 CAEN",-0.356368,49.180644
"Banque Populaire","Coopérative","23-25, RUE DES PRAIRIES SAINT GILLES14000 CAEN",-0.356868,49.184525
"Banque Populaire","Coopérative","22, RUE DE STRASBOURG14000 CAEN",-0.363503,49.182038
"Banque Populaire","Coopérative","52, RUE ECUYÈRE14000 CAEN",-0.370175,49.181999
"Banque Populaire","Coopérative","26, RUE DE LA FALAISE14000 CAEN",-0.337024,49.172056
"Banque Populaire","Coopérative","10, AVE DE LA RÉPUBLIQUERÉSIDENCE LA DEAUVILLAISE14800 DEAUVILLE",0.0839,49.360793
"Banque Populaire","Coopérative","CTRE CIAL DE LA CÔTE FLEURIEBD MAURICE THOREZ14160 DIVES SUR MER",-0.102341,49.285253
"Banque Populaire","Coopérative","6, AVE DE LA BASILIQUE14440 DOUVRES LA DELIVRANDE",-0.373466,49.296849
"Banque Populaire","Coopérative","29, PL BELLE CROIX14700 FALAISE",-0.199873,48.895919
"Banque Populaire","Coopérative","9, QUAI CHÉRON14450 GRANDCAMP MAISY",-1.046683,49.38791
"Banque Populaire","Coopérative","2, AVE GARBSEN14200 HEROUVILLE ST CLAIR",-0.342836,49.213492
"Banque Populaire","Coopérative","PL DEBUSSY14123 IFS",-0.353513,49.1401
"Banque Populaire","Coopérative","15, AVE VICTOR HUGO14100 LISIEUX",0.227621,49.145284
"Banque Populaire","Coopérative","27, RUE EMILE ZOLA14120 MONDEVILLE",-0.325275,49.173402
"Banque Populaire","Coopérative","6, RUE DE LION - 2, RUE PASTEUR14150 OUISTREHAM",-0.260615,49.284132
"Banque Populaire","Coopérative","15, PL DU GÉNÉRAL DE GAULLE14150 OUISTREHAM",-0.251123,49.280324
"Banque Populaire","Coopérative","12, AVE DE GAULLE14520 PORT EN BESSIN",-0.752726,49.344609
"Banque Populaire","Coopérative","ZAC LA VERDUREAVE MICHEL D'ORNANO14800 SAINT ARNOULT",0.088872,49.342401
"Banque Populaire","Coopérative","14, RUE VICTOR HUGO14360 TROUVILLE SUR MER",0.080833,49.366812
"Banque Populaire","Coopérative","12, RUE PASTEUR14310 VILLERS BOCAGE",-0.658584,49.080156
"Banque Populaire","Coopérative","6, RUE DESLONGRAIS14500 VIRE",-0.889333,48.838161
"Banque Populaire","Coopérative","8, AVE GAMBETTA15000 AURILLAC",2.444717,44.927762
"Banque Populaire","Coopérative","9, PLACE DE L'EGLISE15130 ARPAJON SUR CERE",2.459941,44.901102
"Banque Populaire","Coopérative","100, RUE LÉON BLUM15003 AURILLAC",2.434856,44.912324
"Banque Populaire","Coopérative","22, RUE DE LA RÉPUBLIQUE15200 MAURIAC",2.334533,45.218875
"Banque Populaire","Coopérative","8, PL DE L'EUROPE15600 MAURS",2.198548,44.711821
"Banque Populaire","Coopérative","9, RUE DU COMMANDANT MONIER15400 RIOM ES MONTAGNES",2.659162,45.282037
"Banque Populaire","Coopérative","14, COURS SPY DES TERNES15100 ST FLOUR",3.08889,45.032684
"Banque Populaire","Coopérative","17 PLACE JEAN MONNET16100 COGNAC",-0.326735,45.693016
"Banque Populaire","Coopérative","13, AVE DU GÉNÉRAL DE GAULLE16000 ANGOULEME",0.156844,45.649208
"Banque Populaire","Coopérative","5 TER, BD CHANZY16300 BARBEZIEUX",-0.151306,45.472988
"Banque Populaire","Coopérative","90, AVE DE LA RÉPUBLIQUE16260 CHASSENEUIL SUR BONNIEURE",0.449371,45.823791
"Banque Populaire","Coopérative","2, RUE DE VAUZELLE16100 CHATEAUBERNARD",-0.304798,45.685905
"Banque Populaire","Coopérative","15, RUE MAQUIS FOCH16500 CONFOLENS",0.672575,46.014412
"Banque Populaire","Coopérative","LA CHAPELLE DE PRADE16400 LA COURONNE",0.100979,45.615157
"Banque Populaire","Coopérative","131, RTE DE PARIS16160 LE GOND PONTOUVRE",0.173137,45.670287
"Banque Populaire","Coopérative","7, PL D'ARMES16700 RUFFEC",0.199497,46.028048
"Banque Populaire","Coopérative","136, AVE DU GÉNÉRAL DE GAULLE16800 SOYAUX",0.190832,45.642175
"Banque Populaire","Coopérative","1, RUE JULES VERNEZAC DE BELLE AIR NORD17440 AYTRE",-1.095088,46.131424
"Banque Populaire","Coopérative","15, RUE CHAUDRIER17000 LA ROCHELLE",-1.153389,46.160637
"Banque Populaire","Coopérative","4, RUE DU 19 MARS 196217230 CHARRON",-1.104917,46.297939
"Banque Populaire","Coopérative","8, BD DE LA LIBÉRATION17340 CHATELAILLON PLAGE",-1.090381,46.074125
"Banque Populaire","Coopérative","54-56, AVE ALBERT EINSTEIN17043 LA ROCHELLE",-1.155817,46.148189
"Banque Populaire","Coopérative","11, PL DE LA RÉPUBLIQUE17500 JONZAC",-0.433933,45.445234
"Banque Populaire","Coopérative","4, RUE DE L'ANCIENNE CRIÉELA COTINIÈRE17310 ST-PIERRE D'OLERON",-1.329982,45.913914
"Banque Populaire","Coopérative","107, AVE MICHEL CREPEAU17000 LA ROCHELLE",-1.158539,46.14887
"Banque Populaire","Coopérative","9, QUAI MAUBEC17086 LA ROCHELLE",-1.150655,46.158522
"Banque Populaire","Coopérative","69, BD SAUTEL17000 LA ROCHELLE",-1.132617,46.168164
"Banque Populaire","Coopérative","143 BIS, AVE EDMOND GRASSET17000 LA ROCHELLE",-1.175697,46.164088
"Banque Populaire","Coopérative","16, BD PASTEUR17390 LA TREMBLADE",-1.142412,45.770256
"Banque Populaire","Coopérative","RUE DE LA GLACIÈRE17580 LE BOIS PLAGE EN RE",-1.398161,46.184229
"Banque Populaire","Coopérative","18, BD THIERS17480 LE CHATEAU D'OLERON",-1.194388,45.887545
"Banque Populaire","Coopérative","1 BIS, RUE ETCHEBARNE17320 MARENNES",-1.101328,45.823737
"Banque Populaire","Coopérative","14, PL SAMSON17160 MATHA",-0.319949,45.867239
"Banque Populaire","Coopérative","5, RUE DES BROUILLAUDS17130 MONTENDRE",-0.407894,45.28549
"Banque Populaire","Coopérative","20, AVE DE LA RÉPUBLIQUE17270 MONTGUYON",-0.187152,45.21573
"Banque Populaire","Coopérative","CTRE CIAL INTERMARCHÉFIEF ARNAUD17137 NIEUL SUR MER",-0.51411,45.403797
"Banque Populaire","Coopérative","PL POMMERAIE17180 PERIGNY",-1.095856,46.155104
"Banque Populaire","Coopérative","15, RUE EMILE COMBES17800 PONS",-0.547732,45.579464
"Banque Populaire","Coopérative","35 BIS, RUE DENFERT ROCHEREAU17300 ROCHEFORT",-0.966582,45.938556
"Banque Populaire","Coopérative","31, AVE LAFAYETTE17300 ROCHEFORT",-0.961969,45.935014
"Banque Populaire","Coopérative","9, RUE GAMBETTA17200 ROYAN",-1.02978,45.623785
"Banque Populaire","Coopérative","35, COURS NATIONAL17100 SAINTES",-0.632267,45.747095
"Banque Populaire","Coopérative","26, PL DU GAL DE GAULLE17600 SAUJON",-0.924056,45.675893
"Banque Populaire","Coopérative","2, PL FRANÇOIS MITTERRAND17400 ST JEAN D'ANGELY",-0.519624,45.944974
"Banque Populaire","Coopérative","ROUTE DE LA FLOTTE17410 SAINT-MARTIN DE RE",-1.357191,46.198618
"Banque Populaire","Coopérative","5, RUE DU GÉNÉRAL DE GAULLE17310 ST PIERRE D'OLERON",-1.305989,45.943227
"Banque Populaire","Coopérative","84, RUE AUDRY DE PUYRAVAULT17700 SURGERES",-0.751566,46.107455
"Banque Populaire","Coopérative","9, BD DE LA CÔTE DE BEAUTÉ17640 VAUX SUR MER",-1.054335,45.628888
"Banque Populaire","Coopérative","15, RUE DU CHARBON18700 AUBIGNY SUR NERE",2.439402,47.489239
"Banque Populaire","Coopérative","16, RUE MOYENNE18000 BOURGES",2.395693,47.083797
"Banque Populaire","Coopérative","9, RUE PIERRE LATÉCOÈRECTRE D'AFFAIRES - ESPLANADE AÉROPORT18000 BOURGES",2.398082,47.063104
"Banque Populaire","Coopérative","102, AVE MARCEL HAEGELEN18000 BOURGES",2.378091,47.07132
"Banque Populaire","Coopérative","16, PL DU DOCTEUR GUYOT18370 CHATEAUMEILLANT",2.195361,46.560726
"Banque Populaire","Coopérative","28, ROUTE DE LA CHARITÉPORTE SAINT GERMAIN DU PUY18390 SAINT GERMAIN DU PUY",2.442851,47.096614
"Banque Populaire","Coopérative","20, PL DE LA HALLE18600 SANCOINS",2.919038,46.831434
"Banque Populaire","Coopérative","16, RUE NATIONALE18200 ST AMAND MONTROND",2.504923,46.72256
"Banque Populaire","Coopérative","404, RTE D'ORLÉANS18230 ST DOULCHARD",2.378133,47.108961
"Banque Populaire","Coopérative","26, AVE GABRIEL DORDAIN18400 ST FLORENT SUR CHER",2.2471,46.993152
"Banque Populaire","Coopérative","3, AVE PIERRE SEMARD18100 VIERZON",2.061278,47.225264
"Banque Populaire","Coopérative","15, AVE HENRI IV19400 ARGENTAT",1.938924,45.093231
"Banque Populaire","Coopérative","60, RUE DU GÉNÉRAL DE GAULLE19120 BEAULIEU SUR DORDOGNE",1.836989,44.979343
"Banque Populaire","Coopérative","119, PL MARMONTEL19110 BORT LES ORGUES",2.498739,45.401577
"Banque Populaire","Coopérative","2, AVE DU PRÉSIDENT ROOSEVELT19100 BRIVE LA GAILLARDE",1.530149,45.159192
"Banque Populaire","Coopérative","55, AVE DE PARIS19100 BRIVE LA GAILLARDE",1.532215,45.163566
"Banque Populaire","Coopérative","AVE JEAN-CHARLES RIVET19100 BRIVE LA GAILLARDE",1.497826,45.150409
"Banque Populaire","Coopérative","31, AVE CHARLES DE GAULLE19300 EGLETONS",2.047577,45.405976
"Banque Populaire","Coopérative","30, AVE PIERRE ET MARIE CURIE19360 MALEMORT",1.557407,45.168613
"Banque Populaire","Coopérative","PL DE LA POSTE19500 MEYSSAC",1.673705,45.05386
"Banque Populaire","Coopérative","1, PL DE LA RÉPUBLIQUE19130 OBJAT",1.409029,45.262491
"Banque Populaire","Coopérative","14, AVE DU MIDI19230 POMPADOUR",1.379331,45.395362
"Banque Populaire","Coopérative","1, RUE SERGENT LOVY19000 TULLE",1.755096,45.259591
"Banque Populaire","Coopérative","2, AVE VICTOR HUGO19000 TULLE",1.765808,45.263913
"Banque Populaire","Coopérative","13, AVE VICTOR HUGO19200 USSEL",2.308579,45.546333
"Banque Populaire","Coopérative","RUE DU PONT NEUF19140 UZERCHE",1.566124,45.428193
"Banque Populaire","Coopérative","17, COURS JEAN NICOLI20090 AJACCIO",8.743341,41.933766
"Banque Populaire","Coopérative","PARC D'ACTIVITÉS DE MEZZAVIA20167 AJACCIO",8.783944,41.952157
"Banque Populaire","Coopérative","6, AVE ANTOINE SÉRAFINI20000 AJACCIO",8.738041,41.918723
"Banque Populaire","Coopérative","ROUTE DE PIANABÂT A20130 CARGESE",8.603051,42.143273
"Banque Populaire","Coopérative","CTRE CIAL LES 4 PORTESBAT. A20137 PORTO VECCHIO",9.275534,41.595792
"Banque Populaire","Coopérative","IMMEUBLE L'ISOLOTTULIEU DIT SAN GHJUSEPPU20110 PROPRIANO",8.91184,41.671223
"Banque Populaire","Coopérative","23-25, RUE CÉSAR CAMPINCHI20200 BASTIA",9.449399,42.700707
"Banque Populaire","Coopérative","22 BIS, BD WILSON20260 CALVI",8.757919,42.567255
"Banque Populaire","Coopérative","20, ALLÉE DU 9 SEPTEMBRE20250 CORTE",9.156886,42.302088
"Banque Populaire","Coopérative","ROND POINT DE FURIANILIDO DE LA MARANA - SAINT PANCRACE20600 FURIANI",9.458183,42.64429
"Banque Populaire","Coopérative","970, AVENUE DU 9 SEPTEMBRE20240 GHISONACCIA",9.406392,42.017232
"Banque Populaire","Coopérative","PLACE MARCEL DELAUNAY20220 ILE ROUSSE",8.937671,42.632953
"Banque Populaire","Coopérative","RTE DE L'AÉROPORTROND POINT DE CRUCETTA20290 LUCCIANA",9.459163,42.550319
"Banque Populaire","Coopérative","3, RUE JEAN MAIRE21230 ARNAY LE DUC",4.486404,47.130263
"Banque Populaire","Coopérative","77, RUE ANTOINE MASSON21130 AUXONNE",5.387929,47.192699
"Banque Populaire","Coopérative","12 A, RUE GUSTAVE EIFFELZAC DES MALADIÈRES21200 BEAUNE",4.846397,47.039188
"Banque Populaire","Coopérative","4, PL DE LA HALLE21200 BEAUNE",4.837223,47.022856
"Banque Populaire","Coopérative","36, RUE MARÉCHAL DE LATTRE DE TASSIGNY21400 CHATILLON SUR SEINE",4.572199,47.858397
"Banque Populaire","Coopérative","131, AVE ROLAND CARRAZ21300 CHENOVE",5.014226,47.289932
"Banque Populaire","Coopérative","38 C, AVE DE LA RÉPUBLIQUE21800 CHEVIGNY ST SAUVEUR",5.134832,47.299435
"Banque Populaire","Coopérative","3E, RUE JEANNE BARRETZAC PARC VALMY21000 DIJON",5.048249,47.304753
"Banque Populaire","Coopérative","10, RUE DE CRACOVIE21000 DIJON",5.02499,47.309758
"Banque Populaire","Coopérative","16, QUAI NICOLAS ROLIN21000 DIJON",5.026984,47.316088
"Banque Populaire","Coopérative","44, RUE DU BOURG21000 DIJON",5.039313,47.320983
"Banque Populaire","Coopérative","9, ROND POINT DE LA NATION21000 DIJON",5.04463,47.347351
"Banque Populaire","Coopérative","14, BD DE LA TRÉMOUILLE21000 DIJON",5.042644,47.32626
"Banque Populaire","Coopérative","93, BD MANSARD21000 DIJON",5.061883,47.312239
"Banque Populaire","Coopérative","104, AVE VICTOR HUGO21000 DIJON",5.01993,47.331866
"Banque Populaire","Coopérative","8, RUE BERNARD LAUREAU21110 GENLIS",5.219453,47.24133
"Banque Populaire","Coopérative","10, PL DU GÉNÉRAL LECLERC21120 IS SUR TILLE",5.11228,47.522146
"Banque Populaire","Coopérative","6, PL ARISTIDE BRIAND21600 LONGVIC",5.062761,47.286037
"Banque Populaire","Coopérative","2, RUE CARNOT21500 MONTBARD",4.33695,47.621587
"Banque Populaire","Coopérative","11, RUE FAGON21700 NUITS ST GEORGES",4.949534,47.137466
"Banque Populaire","Coopérative","4, RUE DE LA RÉPUBLIQUE21320 POUILLY EN AUXOIS",4.556191,47.262109
"Banque Populaire","Coopérative","14, RUE DES CHALANDS21800 QUETIGNY",5.096272,47.310617
"Banque Populaire","Coopérative","2, RUE DU MARCHÉ21210 SAULIEU",4.228843,47.279309
"Banque Populaire","Coopérative","3, RUE DE L'ANCIENNE COMÉDIE21140 SEMUR EN AUXOIS",4.333656,47.490573
"Banque Populaire","Coopérative","11, RUE DE LA LIBERTÉ21170 ST JEAN DE LOSNE",5.263156,47.102148
"Banque Populaire","Coopérative","PL SPONTIN21350 VITTEAUX",4.54088,47.398007
"Banque Populaire","Coopérative","1, RUE DES MIMOSAS22190 PLERIN",-2.770298,48.543437
"Banque Populaire","Coopérative","1, RUE JULES VERNE - CELLULE A22360 LANGUEUX",-2.727436,48.496354
"Banque Populaire","Coopérative","24, PL DE LA RÉPUBLIQUE22170 CHATELAUDREN",-2.970092,48.542237
"Banque Populaire","Coopérative","14, RUE THIERS22100 DINAN",-2.048854,48.455005
"Banque Populaire","Coopérative","19, RUE GEORGES CLEMENCEAU22430 ERQUY",-1.341947,45.978474
"Banque Populaire","Coopérative","24, RUE SAINT NICOLAS22200 GUINGAMP",-3.147009,48.559231
"Banque Populaire","Coopérative","3, RUE BARIO22400 LAMBALLE",-2.515332,48.469099
"Banque Populaire","Coopérative","13, QUAI D'AIGUILLON22300 LANNION",-3.461558,48.732162
"Banque Populaire","Coopérative","1, AVE DES COMBATTANTS22600 LOUDEAC",-2.754158,48.177063
"Banque Populaire","Coopérative","PL DE LA RÉPUBLIQUE22500 PAIMPOL",-3.044912,48.778899
"Banque Populaire","Coopérative","28 BIS, RUE DU GÉNÉRAL LECLERC22700 PERROS GUIREC",-3.445145,48.814573
"Banque Populaire","Coopérative","2 RUE DE LA POSTE22700 PERROS GUIREC",-3.444116,48.81556
"Banque Populaire","Coopérative","43-45, RUE DU PONT22130 PLANCOET",-2.232421,48.522664
"Banque Populaire","Coopérative","11, RUE DU COMMERCE22190 PLERIN",-2.770689,48.535432
"Banque Populaire","Coopérative","14, GRANDE RUE22800 QUINTIN",2.251902,49.451089
"Banque Populaire","Coopérative","53, RUE SAINT GUILLAUME22000 SAINT-BRIEUC",-2.759634,48.513241
"Banque Populaire","Coopérative","2, BD DU GÉNÉRAL DE GAULLE22410 ST QUAY PORTRIEUX",-2.840051,48.656802
"Banque Populaire","Coopérative","16, PL DU MARTRAY22220 TREGUIER",-3.231066,48.787077
"Banque Populaire","Coopérative","2, PL JEAN LURÇAT23200 AUBUSSON",2.167231,45.955248
"Banque Populaire","Coopérative","1, RUE EMILE DE GIRARDIN23400 BOURGANEUF",1.756634,45.952002
"Banque Populaire","Coopérative","5, RUE DE LA RÉPUBLIQUE23600 BOUSSAC",2.215062,46.34784
"Banque Populaire","Coopérative","GRANDE RUE23800 DUN LE PALESTEL",1.665256,46.305184
"Banque Populaire","Coopérative","12, GRANDE RUE23500 FELLETIN",2.173713,45.883235
"Banque Populaire","Coopérative","10, BD CARNOT23000 GUERET",1.870076,46.169286
"Banque Populaire","Coopérative","32, AVE D'AUVERGNE23000 GUERET",1.883836,46.168209
"Banque Populaire","Coopérative","4, BD JEAN MOULIN23300 LA SOUTERRAINE",1.485153,46.232176
"Banque Populaire","Coopérative","24 BOULEVARD PIMOND24100 BERGERAC",0.482003,44.84304
"Banque Populaire","Coopérative","19, RUE SAINTE CATHERINE24100 BERGERAC",0.484026,44.853976
"Banque Populaire","Coopérative","202, AVENUE MICHEL GRANDOU24750 TRELISSAC",0.753044,45.189073
"Banque Populaire","Coopérative","2, AVE DE SAINTE FOY24500 EYMET",0.395704,44.66685
"Banque Populaire","Coopérative","10, PLACE DE LA REPUBLIQUE24150 LALINDE",0.73845,44.836286
"Banque Populaire","Coopérative","LIEUDIT MARSAC24430 MARSAC SUR L'ISLE",0.659886,45.183447
"Banque Populaire","Coopérative","30, AVE DU 4 SEPTEMBRE24290 MONTIGNAC",1.163978,45.064415
"Banque Populaire","Coopérative","PL GEORGES CLEMENCEAU24700 MONTPON MENESTEROL",0.16617,45.007495
"Banque Populaire","Coopérative","7, RUE EMILE BAZILLOU24400 MUSSIDAN",0.366437,45.036361
"Banque Populaire","Coopérative","2, AVE JULES FERRY24300 NONTRON",0.664016,45.530936
"Banque Populaire","Coopérative","23, PL FRANCHEVILLE24000 PERIGUEUX",0.717655,45.18346
"Banque Populaire","Coopérative","PL DE LA LIBERTÉ24600 RIBERAC",0.34052,45.246752
"Banque Populaire","Coopérative","1, RUE DE LA RÉPUBLIQUE24200 SARLAT LA CANEDA",1.21549,44.89092
"Banque Populaire","Coopérative","1201, AVENUE SIMONE VEIL24200 SARLAT LA CANEDA",1.229573,44.874711
"Banque Populaire","Coopérative","10, PLACE DE LA REPUBLIQUE24110 ST ASTIER",0.528944,45.144829
"Banque Populaire","Coopérative","RUE GAMBETTA24220 ST CYPRIEN",1.043683,44.869141
"Banque Populaire","Coopérative","8, RUE RASTIGNAC24120 TERRASSON LAVILLEDIEU",1.302963,45.1273
"Banque Populaire","Coopérative","1, PL DE LA RÉPUBLIQUE24800 THIVIERS",0.919392,45.415585
"Banque Populaire","Coopérative","46, GRAND RUE24380 VERGT",0.722618,45.026726
"Banque Populaire","Coopérative","32 BIS, AVENUE ARISTIDE BRIAND25400 AUDINCOURT",6.84411,47.481945
"Banque Populaire","Coopérative","15, RUE DES TERREAUX25110 BAUME LES DAMES",6.360221,47.351153
"Banque Populaire","Coopérative","48, RUE DE BELFORT25000 BESANCON",6.03018,47.2485
"Banque Populaire","Coopérative","RUE RENÉ CHAR25000 BESANCON",5.95047,47.2179
"Banque Populaire","Coopérative","1, PL DE LA 1ÈRE ARMÉE FRANÇAISE25000 BESANCON",6.02938,47.2427
"Banque Populaire","Coopérative","7, RUE ALFRED DE VIGNY25000 BESANCON",5.96332,47.2166
"Banque Populaire","Coopérative","185, RUE DE BELFORT25000 BESANCON",6.04454,47.2585
"Banque Populaire","Coopérative","9, RUE DE LA RÉPUBLIQUE25000 BESANCON",6.02512,47.2388
"Banque Populaire","Coopérative","59, RUE DE VESOUL25000 BESANCON",6.01494,47.2543
"Banque Populaire","Coopérative","2, RUE RIBOT25000 BESANCON",6.01389,47.237
"Banque Populaire","Coopérative","CARREFOUR SUD SAVARYLES MONTBOUCONS25000 BESANCON",4.896241,44.927938
"Banque Populaire","Coopérative","3 A RUE DE BESANÇON, 25300 DOUBS",6.342984,46.9228
"Banque Populaire","Coopérative","35, RUE DE CHATILLON25480 ECOLE VALENTIN",5.99171,47.2804
"Banque Populaire","Coopérative","1, PLACE BUTTIGLIERA ALTA25370 JOUGNE",6.38836,46.762256
"Banque Populaire","Coopérative","24, PL ARISTIDE BRIAND25250 L'ISLE SUR LE DOUBS",6.581291,47.448989
"Banque Populaire","Coopérative","23, PL DOMINIQUE PARRENIN25210 LE RUSSEY",6.729152,47.162654
"Banque Populaire","Coopérative","1, RUE DE LA BATHEUSE25120 MAICHE",6.799575,47.251404
"Banque Populaire","Coopérative","44, RUE DE BEAULIEU25350 MANDEURE",6.815194,47.445672
"Banque Populaire","Coopérative","27, RUE CUVIER25200 MONTBELIARD",6.79972,47.510129
"Banque Populaire","Coopérative","4, RUE VIVALDI25200 MONTBELIARD",6.799976,47.501019
"Banque Populaire","Coopérative","17, RUE DE L'HELVÉTIE25500 MORTEAU",6.609081,47.054771
"Banque Populaire","Coopérative","22, GRANDE RUE25390 ORCHAMPS VENNES",6.526315,47.130981
"Banque Populaire","Coopérative","20, RUE JACQUES GERVAIS25290 ORNANS",6.150752,47.103451
"Banque Populaire","Coopérative","7, RUE FRANÇOIS MITTERAND25150 PONT DE ROIDE",2.795083,49.698058
"Banque Populaire","Coopérative","26, RUE DES REMPARTS25300 PONTARLIER",6.354447,46.902464
"Banque Populaire","Coopérative","83, RUE DE SALINS25300 PONTARLIER",6.340363,46.908265
"Banque Populaire","Coopérative","9, AVE DE LA GARE25680 ROUGEMONT",6.353417,47.480757
"Banque Populaire","Coopérative","12, GRANDE RUE25660 SAONE",6.1163,47.2236
"Banque Populaire","Coopérative","112, RUE DU GÉNÉRAL LECLERC25230 SELONCOURT",6.861002,47.460995
"Banque Populaire","Coopérative","7, RUE D'EPINAL25600 SOCHAUX",6.830525,47.515632
"Banque Populaire","Coopérative","19, GRANDE RUE25190 ST HIPPOLYTE",6.812075,47.31783
"Banque Populaire","Coopérative","1BIS, RUE CHARLES DE GAULLE25410 ST VIT",5.81009,47.1818
"Banque Populaire","Coopérative","36 BIS, GRANDE RUE25800 VALDAHON",6.327246,47.15305
"Banque Populaire","Coopérative","25, GRANDE RUE25700 VALENTIGNEY",6.835909,47.461865
"Banque Populaire","Coopérative","3, RUE PIERRE BERÇOT25130 VILLERS LE LAC",6.670157,47.058744
"Banque Populaire","Coopérative","PLACE DE L'EGLISE26270 LORIOL SUR DROME",4.822904,44.752061
"Banque Populaire","Coopérative","10, BOULEVARD DU GENERAL DE GAULLE26200 MONTELIMAR",4.760571,44.552535
"Banque Populaire","Coopérative","26, BD GÉNÉRAL DE GAULLE2ÈME ÉTAGE26000 VALENCE",4.89317,44.930219
"Banque Populaire","Coopérative","4, ALLÉE DE BARJAC ZA DU MEYROL26200 MONTELIMAR",4.741906,44.569932
"Banque Populaire","Coopérative","42, AVE DES LANGORIESPLATEAU DE LAUTAGNE26000 VALENCE",4.904748,44.90392
"Banque Populaire","Coopérative","10 PLACE DU MARCHE26170 BUIS LES BARONNIES",5.27527,44.27551
"Banque Populaire","Coopérative","RTE DE VALENCEZA GOUVERNAUX26120 CHABEUIL",4.93123,44.924064
"Banque Populaire","Coopérative","2, AVE ALBERT MAZADE26250 LIVRON SUR DROME",4.84402,44.773148
"Banque Populaire","Coopérative","39, BD DESMARAIS26200 MONTELIMAR",4.748187,44.558198
"Banque Populaire","Coopérative","140, AVE JEAN JAURÈS26200 MONTELIMAR",4.746547,44.542113
"Banque Populaire","Coopérative","13, AVE DU GÉNÉRAL DE GAULLE26300 BOURG DE PEAGE",5.05554,45.037051
"Banque Populaire","Coopérative","16, PL JULES NADI26103 ROMANS SUR ISERE",5.051521,45.044419
"Banque Populaire","Coopérative","7 BIS, PL DU CHAMPS DE MARS26700 PIERRELATTE",4.69035,44.360394
"Banque Populaire","Coopérative","18, RUE STEINBERG26140 ST RAMBERT D'ALBON",4.817467,45.298819
"Banque Populaire","Coopérative","55, RUE DU PRÉSIDENT WILSON26240 ST VALLIER",4.813976,45.179493
"Banque Populaire","Coopérative","8TER, AVE CHARLES GOUNOD26130 SAINT-PAUL-TROIS-CHATEAUX",4.765679,44.350977
"Banque Populaire","Coopérative","2, QUAI DES MARRONNIERS26400 CREST",5.0222,44.727433
"Banque Populaire","Coopérative","49, RUE CAMILLE BUFFARDEL26150 DIE",5.370852,44.754363
"Banque Populaire","Coopérative","7 BIS RUE SEVIGNE26000 VALENCE",4.894325,44.928943
"Banque Populaire","Coopérative","61, RUE JEAN JAURÈSRÉSIDENCE LES CÈDRES26800 PORTES LES VALENCE",4.873302,44.868357
"Banque Populaire","Coopérative","350-360, AVE VICTOR HUGO26000 VALENCE",4.886622,44.918442
"Banque Populaire","Coopérative","2, AVE MARC URTIN26500 BOURG LES VALENCE",4.893855,44.945372
"Banque Populaire","Coopérative","26, RUE THIERS27300 BERNAY",0.596737,49.08998
"Banque Populaire","Coopérative","11, RUE DE GRENOBLE27000 EVREUX",1.149303,49.026162
"Banque Populaire","Coopérative","13-15, RUE DU GÉNÉRAL DE GAULLE27600 GAILLON",1.333008,49.160258
"Banque Populaire","Coopérative","8, RUE DE VIENNE27140 GISORS",1.777217,49.280311
"Banque Populaire","Coopérative","67, RUE DUPONT DE L'EURE27110 LE NEUBOURG",0.902286,49.148514
"Banque Populaire","Coopérative","23, PL NICOLAS POUSSIN27700 LES ANDELYS",1.418484,49.246712
"Banque Populaire","Coopérative","29, RUE DU MARÉCHAL FOCH27400 LOUVIERS",1.170251,49.212002
"Banque Populaire","Coopérative","73, RUE ISAMBARD27120 PACY SUR EURE",1.380386,49.014108
"Banque Populaire","Coopérative","PL VICTOR HUGO27500 PONT AUDEMER",0.514034,49.354504
"Banque Populaire","Coopérative","15-21, BD DE GAULL27950 SAINT MARCEL",1.45159,49.101971
"Banque Populaire","Coopérative","1, ROUTE DE FALAISE27100 VAL DE REUIL",1.204206,49.267521
"Banque Populaire","Coopérative","9, PL CHARLES DE GAULLE27200 VERNON",1.483179,49.093493
"Banque Populaire","Coopérative","18, RUE DIANE DE POITIERS28260 ANET",1.438653,48.857059
"Banque Populaire","Coopérative","6, RUE PASTEUR28701 AUNEAU",1.774558,48.462288
"Banque Populaire","Coopérative","CENTRE CCIAL LECLERC EPICENTRE, 1 RUE DES ORVILLES, 28630 BARJOUVILLE",1.463372,48.409773
"Banque Populaire","Coopérative","1, RUE HÉRISSON28800 BONNEVAL",1.386742,48.180826
"Banque Populaire","Coopérative","2, PL DU DAUPHIN28160 BROU",1.167324,48.209718
"Banque Populaire","Coopérative","5, PL DES EPARS28001 CHARTRES",1.484453,48.444044
"Banque Populaire","Coopérative","10-12, ALLÉE POMÉTHÉE PROPYLÉE II28000 CHARTRES",1.531404,48.455142
"Banque Populaire","Coopérative","CTRE CIAL MADELEINEAVE DES ANC. COMBAT. D'AFRIQUE DU NORD28000 CHARTRES",1.352788,46.801607
"Banque Populaire","Coopérative","18, RUE JEAN MOULIN28200 CHATEAUDUN",1.329454,48.071255
"Banque Populaire","Coopérative","2, RUE AUX TANNEURS28103 DREUX",1.365012,48.736877
"Banque Populaire","Coopérative","6, RUE DU GRAND PONT28230 EPERNON",1.679739,48.608343
"Banque Populaire","Coopérative","13, PL DE L'HÔTEL DE VILLE28240 LA LOUPE",1.013503,48.471589
"Banque Populaire","Coopérative","39, RUE DE LA RÉPUBLIQUE28112 LUCE",1.46439,48.439784
"Banque Populaire","Coopérative","2, PL NOË ET OMER SADORGE28130 MAINTENON",1.577763,48.587977
"Banque Populaire","Coopérative","51, RUE VILLETTE GÂTE28400 NOGENT LE ROTROU",0.822036,48.321487
"Banque Populaire","Coopérative","1, RUE DU 14 JUILLET29770 AUDIERNE",-4.54101,48.024415
"Banque Populaire","Coopérative","8, RUE CAMILLE SAINT SAËNS29200 BREST",-4.510413,48.401676
"Banque Populaire","Coopérative","8, RUE SAINT SAËNS29200 BREST",-4.4833,48.391306
"Banque Populaire","Coopérative","355, RUE DE L'ELORN29229 BREST",-4.480835,48.384731
"Banque Populaire","Coopérative","9, RUE ALAIN FOURNIER29200 BREST",-4.4874,48.38726
"Banque Populaire","Coopérative","18, RUE ROBESPIERRE29200 BREST",-4.491448,48.413923
"Banque Populaire","Coopérative","73, RUE DE SIAM29200 BREST",-4.489094,48.387935
"Banque Populaire","Coopérative","1BIS, RUE EMILE ROUSSE29200 BREST",-4.527236,48.381814
"Banque Populaire","Coopérative","35, RUE DES MARTYRS29270 CARHAIX PLOUGUER",-3.568941,48.276977
"Banque Populaire","Coopérative","20, QUAI CARNOT29150 CHATEAULIN",-4.094262,48.196438
"Banque Populaire","Coopérative","2, PLACE DU GÉNÉRAL DE GAULLE29900 CONCARNEAU",-3.919456,47.871937
"Banque Populaire","Coopérative","21, RUE ALSACE LORRAINE29160 CROZON",-4.490381,48.246029
"Banque Populaire","Coopérative","17, RUE DUGUAY TROUIN29100 DOUARNENEZ",-4.330068,48.092484
"Banque Populaire","Coopérative","6, RUE EDOUARD BRANLYZA DE TOUBALAN29100 DOUARNENEZ",-4.346918,48.091004
"Banque Populaire","Coopérative","5, RUE DE CORNOUAILLE29170 FOUESNANT",-4.010659,47.894337
"Banque Populaire","Coopérative","10, RUE COMMANDANT CHALLE29490 GUIPAVAS",-4.402297,48.434676
"Banque Populaire","Coopérative","9, RUE DE LA TOUR D'AUVERGNE29800 LANDERNEAU",-4.249021,48.45079
"Banque Populaire","Coopérative","11, RUE CLEMENCEAU29400 LANDIVISIAU",-4.069418,48.509909
"Banque Populaire","Coopérative","6 RUE LIEUTENANT JOURDEN29217 LE CONQUET",-4.773549,48.360204
"Banque Populaire","Coopérative","15, RUE DE LA MARINE29730 LE GUILVINEC",-4.285961,47.799176
"Banque Populaire","Coopérative","15, RUE DE LA MARINE29730 GUILVINEC",-4.281569,47.795417
"Banque Populaire","Coopérative","TERRE-PLEIN DU PORT29740 LESCONIL",-4.213157,47.797829
"Banque Populaire","Coopérative","10, RUE DE LA MARNE29260 LESNEVEN",-4.322997,48.571506
"Banque Populaire","Coopérative","21, PL DE L'EGLISE29350 MOELAN SUR MER",-3.628575,47.814422
"Banque Populaire","Coopérative","2, PL DU DOSSEN29600 MORLAIX",-3.825391,48.57599
"Banque Populaire","Coopérative","14, RUE CARNOT29600 MORLAIX",-3.827667,48.577031
"Banque Populaire","Coopérative","243, RUE LUCIEN LE LAY29760 PENMARC'H",-4.375937,47.817269
"Banque Populaire","Coopérative","19, RUE DU PONT29470 PLOUGASTEL DAOULAS",-4.371164,48.37661
"Banque Populaire","Coopérative","13, RUE DU VERGER29880 PLOUGUERNEAU",-4.50485,48.606435
"Banque Populaire","Coopérative","305, BD DU GÉNÉRAL DE GAULLE29280 PLOUZANE",-4.590169,48.371342
"Banque Populaire","Coopérative","4, RUE JEAN JAURES29120 PONT L'ABBE",-4.223798,47.866896
"Banque Populaire","Coopérative","50, RUE DU PRÉSIDENT SADATE29000 QUIMPER",-4.097186,47.977326
"Banque Populaire","Coopérative","6, RUE RENÉ MADEC29000 QUIMPER",-4.106045,47.994489
"Banque Populaire","Coopérative","7, ALLÉE EMILE LE PAGE29000 QUIMPER",-4.099326,47.979497
"Banque Populaire","Coopérative","27 BIS, AVE DE LA GARE29000 QUIMPER",-4.139161,47.995973
"Banque Populaire","Coopérative","27 BIS AVENUE DE LA GARE29000 QUIMPER",-4.093846,47.994238
"Banque Populaire","Coopérative","1, RUE DE LA LIBERTÉ29000 QUIMPER",-4.102055,47.982121
"Banque Populaire","Coopérative","6-8, QUAI DU STEIR29000 QUIMPER",-4.105541,47.994829
"Banque Populaire","Coopérative","9, PL SAINT MICHEL29300 QUIMPERLE",-3.548716,47.870801
"Banque Populaire","Coopérative","CTRE CIAL BRETAGNIA29600 ST MARTIN DES CHAMPS",3.820759,46.219582
"Banque Populaire","Coopérative","CENTRE COMMERCIAL BRETAGNIN29600 SAINT MARTIN DES CHAMPS",-3.851703,48.572132
"Banque Populaire","Coopérative","9, RUE DU COLOMBIER29250 ST POL DE LEON",-3.987604,48.685281
"Banque Populaire","Coopérative","30, RUE SAINT YVES29290 ST RENAN",-4.622898,48.433884
"Banque Populaire","Coopérative","41, RUE DE PONT-AVEN29910 TREGUNC",-3.84901,47.854745
"Banque Populaire","Coopérative","527, AVENUE DU COLLEGE30420 CALVISSON",4.203803,43.783573
"Banque Populaire","Coopérative","44, BOULEVARD VICTOR HUGO30000 NIMES",4.356092,43.837448
"Banque Populaire","Coopérative","7, AVENUE DE LA LIBERATION30700 UZES",4.416815,44.01133
"Banque Populaire","Coopérative","1121, RTE DE NÎMES30220 AIGUES MORTES",4.199403,43.577397
"Banque Populaire","Coopérative","14 PLACE HENRI BARBUSSE30100 ALES",4.080112,44.123986
"Banque Populaire","Coopérative","47, RUE D'AVÉJEAN30100 ALES",4.079968,44.121939
"Banque Populaire","Coopérative","584, AVE DE CROUPILLAC30100 ALES",4.104653,44.133645
"Banque Populaire","Coopérative","5, PL JEAN JAURÈS30200 BAGNOLS SUR CEZE",4.619589,44.165448
"Banque Populaire","Coopérative","37 RUE LEON ALEGRE30200 BAGNOLS SUR CEZE",4.621923,44.164021
"Banque Populaire","Coopérative","17, PL PIERRE BOULOT30200 BAGNOLS SUR CEZE",4.622448,44.160749
"Banque Populaire","Coopérative","26 BIS, QUAI DU GÉNÉRAL DE GAULLE30300 BEAUCAIRE",4.644607,43.805701
"Banque Populaire","Coopérative","AVE DE LA DAMEZONE EURO 200030132 CAISSARGUES",4.38082,43.799421
"Banque Populaire","Coopérative","11, RUE FANFONNE GUILLIERME30190 LA CALMETTE",4.257631,43.922398
"Banque Populaire","Coopérative","PORT ROYALAVE DOSSENHEIM30240 LE GRAU DU ROI",4.143047,43.533714
"Banque Populaire","Coopérative","49 BIS, AVE DU COMMANDANT MARCEAU30240 LE GRAU DU ROI",4.135089,43.53988
"Banque Populaire","Coopérative","55, AVE DU GÉNÉRAL DE GAULLELES JARDINS D'ARIANE I30133 LES ANGLES",7.081024,48.729442
"Banque Populaire","Coopérative","330, AVENUE DE LA 2ÈME DB30133 LES ANGLES",4.765392,43.958385
"Banque Populaire","Coopérative","125, AVE BIR HAKEIM30000 NIMES",4.382968,43.842784
"Banque Populaire","Coopérative","148, RTE DE SAUVE30900 NIMES",4.318383,43.84071
"Banque Populaire","Coopérative","100, RUE DES MOUSQUETAIRESCTRE CIAL NÎMES SOLEIL30900 NIMES",4.346855,43.832594
"Banque Populaire","Coopérative","5, BD AMIRAL COURBET30000 NIMES",4.362489,43.836487
"Banque Populaire","Coopérative","78, RUE JOHN MAC ADAM30000 NIMES",4.337115,43.814609
"Banque Populaire","Coopérative","13A AVENUE FEUCHÈRES30000 NIMES",4.364244,43.834051
"Banque Populaire","Coopérative","6, RUE DES HALLES30000 NIMES",4.404803,43.869418
"Banque Populaire","Coopérative","71 AVENUE JEAN JAURES30900 NIMES",4.353888,43.826276
"Banque Populaire","Coopérative","1, PL DE LA MAISON CARRÉE30000 NIMES",4.355838,43.83785
"Banque Populaire","Coopérative","11, PL SÉVERINE30900 NIMES",4.352609,43.829931
"Banque Populaire","Coopérative","40, BD VICTOR HUGO30000 NIMES",4.356596,43.837012
"Banque Populaire","Coopérative","5, RUE DES LAURIERSIMMEUBLE PLEIN CINTRE30900 NIMES",4.32898,43.815405
"Banque Populaire","Coopérative","19, BD GAMBETTA30130 PONT ST ESPRIT",4.647654,44.257394
"Banque Populaire","Coopérative","351, RUE MARC SEGUIN30210 REMOULINS",4.572058,43.943618
"Banque Populaire","Coopérative","11 RUE DE LA REPUBLIQUE30150 ROQUEMAURE",4.777682,44.051985
"Banque Populaire","Coopérative","75 RUE GAMBETTA30800 SAINT GILLES",4.429647,43.676959
"Banque Populaire","Coopérative","ZAC DE TESAN30126 ST LAURENT DES ARBRES",4.697128,44.060729
"Banque Populaire","Coopérative","ROUTE DE SAUSSINESCTRE CIAL30250 SOMMIERES",4.082575,43.781068
"Banque Populaire","Coopérative","211, AVE JEAN MOULIN30380 ST CHRISTOL LES ALES",4.077689,44.082047
"Banque Populaire","Coopérative","CTRE CIAL CASINOLIEUDIT CAMPASTIER30980 ST DIONIZY",4.227572,43.804793
"Banque Populaire","Coopérative","42 BOULEVARD GAMBETTA30700 UZES",4.417939,44.012623
"Banque Populaire","Coopérative","9, AVE DE LA LIBÉRATION30700 UZES",4.416249,44.011321
"Banque Populaire","Coopérative","293 RUE DE LA RÉPUBLIQUE30600 VAUVERT",4.274928,43.692717
"Banque Populaire","Coopérative","AVE DE LA CONDAMINE30600 VAUVERT",4.272117,43.686818
"Banque Populaire","Coopérative","5 PLACE JEAN JAURES30400 VILLENEUVE LES AVIGNON",4.797125,43.964151
"Banque Populaire","Coopérative","79, ROUTE DE FRONTON31140 AUCAMVILLE",1.429963,43.665625
"Banque Populaire","Coopérative","10, ROUTE DE TOULOUSE31190 AUTERIVE",1.470527,43.350932
"Banque Populaire","Coopérative","1, AVE CARNOT31110 BAGNERES DE LUCHON",0.591245,42.791679
"Banque Populaire","Coopérative","6, AVE DE TOULOUSE31130 BALMA",1.49389,43.60953
"Banque Populaire","Coopérative","33, AVE GEORGES POMPIDOU31130 BALMA",1.494281,43.62616
"Banque Populaire","Coopérative","PL DU CORPS FRANC POMMIES31700 BLAGNAC",1.3941,43.62912
"Banque Populaire","Coopérative","AÉROPORT TOULOUSE BLAGNAC31700 BLAGNAC",1.40176,43.624645
"Banque Populaire","Coopérative","17, RUE PROSPER FERRADOU31700 BLAGNAC",1.39677,43.6348
"Banque Populaire","Coopérative","54-56, PL DE LA MAIRIE31350 BOULOGNE SUR GESSE",0.645528,43.290636
"Banque Populaire","Coopérative","28, AVE DE TOULOUSE31460 CARAMAN",1.755295,43.531386
"Banque Populaire","Coopérative","35, PL DE LA RÉPUBLIQUE31390 CARBONNE",1.224936,43.296998
"Banque Populaire","Coopérative","13, AVE DE TOULOUSE31320 CASTANET TOLOSAN",1.498494,43.516217
"Banque Populaire","Coopérative","14, RUE DU PONT VIEIL31780 CASTELGINEST",1.427007,43.69174
"Banque Populaire","Coopérative","4, PL JEAN JAURÈS31220 CAZERES",1.084079,43.20516
"Banque Populaire","Coopérative","26, RUE D'AUCH31770 COLOMIERS",1.33889,43.60833
"Banque Populaire","Coopérative","2, RUE ANTOINE LAVOISIERZAC LE PERGET31770 COLOMIERS",1.309342,43.610898
"Banque Populaire","Coopérative","1, AVE DE LATÉCOÈRE31700 CORNEBARRIEU",1.334151,43.650164
"Banque Populaire","Coopérative","16, PL DE L'EGLISE31270 CUGNAUX",1.344178,43.536743
"Banque Populaire","Coopérative","151, RTE DE TOULOUSE31278 CUGNAUX",1.364853,43.557295
"Banque Populaire","Coopérative","1, PL DE LA CROIX BLANCHE31600 EAUNES",1.357726,43.425618
"Banque Populaire","Coopérative","2113, RTE DE TARBESCLOS ALBERT 1ER31470 FONSORBES",1.22668,43.536847
"Banque Populaire","Coopérative","45, AVE DE TOULOUSE31620 FRONTON",1.433749,43.628748
"Banque Populaire","Coopérative","32, RUE VICTOR HUGO31330 GRENADE",1.293827,43.772361
"Banque Populaire","Coopérative","2, ALLÉE DES NYMPHÉAS31240 L'UNION",1.47655,43.65593
"Banque Populaire","Coopérative","RUE DE L'AUTAN31670 LABEGE",1.53539,43.529821
"Banque Populaire","Coopérative","2, ALLÉE DES CORDELIERSZAC DE LENGEL31490 LEGUEVIN",1.262217,43.602922
"Banque Populaire","Coopérative","2093, RTE D'ALBI31380 MONTASTRUC LA CONSEILLERE",1.585674,43.722181
"Banque Populaire","Coopérative","46, RUE DU BARRY31210 MONTREJEAU",0.570773,43.08441
"Banque Populaire","Coopérative","54 TER AVE JACQUES DOUZANS31600 MURET",1.329124,43.469096
"Banque Populaire","Coopérative","40, AVENUE DE PYRÉNÉES31600 MURET",1.325039,43.458031
"Banque Populaire","Coopérative","36 BIS, RUE DE LA RÉPUBLIQUE31560 NAILLOUX",1.623608,43.358499
"Banque Populaire","Coopérative","94, RTE D'ANDORRERÉSIDENCE LE CONFLUENT - BÂT B31120 PINSAGUEL",1.391259,43.501799
"Banque Populaire","Coopérative","RUE PIERRE LOTIZAC DE LA RIVIÈRE31830 PLAISANCE DU TOUCH",1.308338,43.569582
"Banque Populaire","Coopérative","22, RUE ROBERT SAINTIGNY31120 PORTET SUR GARONNE",1.407653,43.521984
"Banque Populaire","Coopérative","COURS GOUDOULI31130 QUINT-FONSEGRIVES",1.527474,43.584733
"Banque Populaire","Coopérative","2, PL MARNAC31520 RAMONVILLE ST AGNE",1.477691,43.547164
"Banque Populaire","Coopérative","21, BD DE LA RÉPUBLIQUE31250 REVEL",2.003204,43.45988
"Banque Populaire","Coopérative","10, PL DES MARCHANDS31370 RIEUMES",1.120329,43.412459
"Banque Populaire","Coopérative","21, IMPASSE DE LADOUX31790 SAINT JORY",1.37304,43.738955
"Banque Populaire","Coopérative","10, PL DE LA LIBÉRATION31600 SEYSSES",1.310936,43.498505
"Banque Populaire","Coopérative","85, RUE DE LA RÉPUBLIQUE31800 ST GAUDENS",0.725119,43.108547
"Banque Populaire","Coopérative","13-14, ALLÉE VICTOR HUGO31240 ST JEAN",1.500005,43.663996
"Banque Populaire","Coopérative","13, AVE DE TOULOUSE31470 ST LYS",1.179008,43.508578
"Banque Populaire","Coopérative","36, AVE DE GAMEVILLE31650 ST ORENS DE GAMEVILLE",1.533002,43.553145
"Banque Populaire","Coopérative","47, RUE D'ALSACE LORRAINE31001 TOULOUSE",1.445596,43.605151
"Banque Populaire","Coopérative","70, AVE DE LOMBEZ31300 TOULOUSE",1.416454,43.595335
"Banque Populaire","Coopérative","1, AVE DU MIRAIL31100 TOULOUSE",1.39257,43.567371
"Banque Populaire","Coopérative","46, FAUBOURG BONNEFOY31500 TOULOUSE",1.455833,43.61828
"Banque Populaire","Coopérative","125, AVE CAMILLE PUJOL31500 TOULOUSE",1.467125,43.600758
"Banque Populaire","Coopérative","111, RTE D'ALBI31200 TOULOUSE",1.463472,43.634569
"Banque Populaire","Coopérative","2, BD DÉODAT DE SÈVERAC31300 TOULOUSE",1.428104,43.58567
"Banque Populaire","Coopérative","18, PL DUPUY31000 TOULOUSE",1.443893,43.594801
"Banque Populaire","Coopérative","23, PL ESQUIROL31000 TOULOUSE",1.445383,43.600253
"Banque Populaire","Coopérative","2, IMPASSE JEAN CHAUBET31500 TOULOUSE",1.481471,43.605543
"Banque Populaire","Coopérative","1, PL JEANNE D'ARC31000 TOULOUSE",1.445863,43.60893
"Banque Populaire","Coopérative","7, PL COMMERCIALE JOLIMONT31500 TOULOUSE",1.460993,43.613548
"Banque Populaire","Coopérative","85, AVE JULES JULIEN31400 TOULOUSE",1.450711,43.576751
"Banque Populaire","Coopérative","235, AVE SAINT EXUPÉRY31400 TOULOUSE",1.48302,43.579197
"Banque Populaire","Coopérative","266, AVE DE LARDENNE31100 TOULOUSE",1.37855,43.590201
"Banque Populaire","Coopérative","7, BD LASCROSSES31000 TOULOUSE",1.437534,43.610977
"Banque Populaire","Coopérative","102, AVE DES MINIMES31200 TOULOUSE",1.43549,43.621445
"Banque Populaire","Coopérative","5, RUE JOLIOT CURIE31100 TOULOUSE",1.43068,43.554939
"Banque Populaire","Coopérative","118, ROUTE DE NARBONNE31062 TOULOUSE",1.455144,43.365261
"Banque Populaire","Coopérative","2, AVE SAINT EXUPÉRY31400 TOULOUSE",1.461077,43.587437
"Banque Populaire","Coopérative","297, AVE DE GRANDE BRETAGNE31300 TOULOUSE",1.397804,43.607611
"Banque Populaire","Coopérative","226, ROUTE DE NARBONNE31400 TOULOUSE",-0.57187,44.804206
"Banque Populaire","Coopérative","96, RTE DE BLAGNAC31200 TOULOUSE",-0.573824,44.810591
"Banque Populaire","Coopérative","48-50, ALLÉE CHARLES DE FITTE31300 TOULOUSE",1.431445,43.597325
"Banque Populaire","Coopérative","31, GRANDE RUE SAINT MICHEL31400 TOULOUSE",1.447077,43.586055
"Banque Populaire","Coopérative","6, BD VINCENT AURIOL31170 TOURNEFEUILLE",1.345172,43.584894
"Banque Populaire","Coopérative","22, BD VINCENT AURIOL31170 TOURNEFEUILLE",1.348369,43.586643
"Banque Populaire","Coopérative","128, RUE DE LA RÉPUBLIQUE31290 VILLEFRANCHE DE LAURAGAIS",1.714549,43.400784
"Banque Populaire","Coopérative","6, PL DE L'ANCIEN FOIRAIL32000 AUCH",0.583558,43.648304
"Banque Populaire","Coopérative","35 TER, AVE DES PYRÉNÉES32000 AUCH",0.584083,43.637567
"Banque Populaire","Coopérative","7, PL DE VERDUN32000 AUCH",0.593155,43.647992
"Banque Populaire","Coopérative","4, PL DU LION D'OR32100 CONDOM",0.371761,43.957368
"Banque Populaire","Coopérative","2, RUE SAINT JULY32800 EAUZE",0.100937,43.860705
"Banque Populaire","Coopérative","7, PL DE LA RÉPUBLIQUE32500 FLEURANCE",0.662894,43.849159
"Banque Populaire","Coopérative","49, BD DU NORD32200 GIMONT",0.876348,43.627946
"Banque Populaire","Coopérative","10, PLACE DU FOIRAIL32600 L'ISLE JOURDAIN",1.081871,43.615519
"Banque Populaire","Coopérative","24, RUE NATIONALE32700 LECTOURE",0.623644,43.934159
"Banque Populaire","Coopérative","9, PL D'ASTARAC32300 MIRANDE",0.403961,43.514014
"Banque Populaire","Coopérative","10, PL JEANNE D'ARC32110 NOGARO",-0.03342,43.757773
"Banque Populaire","Coopérative","1, PL DE LA LIBÉRATION32400 RISCLE",-0.08696,43.657154
"Banque Populaire","Coopérative","10, RUE DE LA RÉPUBLIQUE32130 SAMATAN",0.931271,43.493233
"Banque Populaire","Coopérative","8-10, COURS ALBERT DELUCQ32190 VIC FEZENSAC",0.301477,43.758262
"Banque Populaire","Coopérative","103 AVENUE DU GÉNÉRAL DE GAULLE33500 LIBOURNE",-0.223265,44.903787
"Banque Populaire","Coopérative","22, RUE DU PRÉSIDENT COTY33440 AMBARES ET LAGRAVE",-0.490418,44.927035
"Banque Populaire","Coopérative","155, BD DE LA RÉPUBLIQUE33510 ANDERNOS",-1.09931,44.742255
"Banque Populaire","Coopérative","270, BD DE LA PLAGE33120 ARCACHON",-1.170135,44.662375
"Banque Populaire","Coopérative","65 BIS, RUE DU GÉNÉRAL DE GAULLE33740 ARES",-1.142238,44.775794
"Banque Populaire","Coopérative","18 TER, ALLÉE ERNEST DE BOISSIÈRE33980 AUDENGE",-1.015061,44.683166
"Banque Populaire","Coopérative","3, ALLÉES DE TOURNY33000 BORDEAUX",-0.575291,44.843865
"Banque Populaire","Coopérative","1, COURS DU GÉNÉRAL DE GAULLE33430 BAZAS",-0.213672,44.431649
"Banque Populaire","Coopérative","10, COURS VICTOR HUGO33130 BEGLES",-0.564385,44.812735
"Banque Populaire","Coopérative","1, AVE DE LA LIBÉRATION33380 BIGANOS",-0.968834,44.63791
"Banque Populaire","Coopérative","1, AVE DU GÉNÉRAL DE GAULLE33290 BLANQUEFORT",-0.639263,44.90656
"Banque Populaire","Coopérative","13, COURS DU PORT33390 BLAYE",-0.664165,45.125383
"Banque Populaire","Coopérative","4, PL STALINGRAD33100 BORDEAUX",-0.560396,44.840519
"Banque Populaire","Coopérative","113, AVE LOUIS BARTHOU33200 BORDEAUX",-0.612926,44.852259
"Banque Populaire","Coopérative","2, COURS PORTAL33000 BORDEAUX",-0.573448,44.852196
"Banque Populaire","Coopérative","10, QUAI DES QUEYRIES33072 BORDEAUX",-0.562802,44.842082
"Banque Populaire","Coopérative","187, RUE FONDAUDÈGE33000 BORDEAUX",-0.584789,44.849642
"Banque Populaire","Coopérative","66, BD GEORGE V33000 BORDEAUX",-0.589341,44.825534
"Banque Populaire","Coopérative","2, AVE DE LA RÉPUBLIQUE33200 BORDEAUX",-0.599525,44.840117
"Banque Populaire","Coopérative","99, COURS DE LA MARNE33000 BORDEAUX",-0.566812,44.829461
"Banque Populaire","Coopérative","295, COURS DE LA SOMME33800 BORDEAUX",-0.572398,44.818452
"Banque Populaire","Coopérative","2, RUE DUFOUR DUBERGIERPLACE PEY BERLAND33000 BORDEAUX",-0.575972,44.836803
"Banque Populaire","Coopérative","1, RUE SAINT GENÈS33000 BORDEAUX",-0.578498,44.830721
"Banque Populaire","Coopérative","5, PL RENÉ GÉRARD33410 CADILLAC",-0.321743,44.636701
"Banque Populaire","Coopérative","1, RTE DES CITÉS33360 CAMBLANES ET MEYNAC",-0.488116,44.767259
"Banque Populaire","Coopérative","43-45, ROUTE DU CAP-FERRETGRAND PIQUEY33950 LEGE CAP-FERRET",-1.212746,44.716463
"Banque Populaire","Coopérative","53, AVE AUSTIN COMTE33560 CARBON BLANC",-0.500163,44.894555
"Banque Populaire","Coopérative","2, PL ARISTIDE BRIAND33480 CASTELNAU DE MEDOC",-0.798388,45.027423
"Banque Populaire","Coopérative","2, PL PIERRE ORUS33350 CASTILLON LA BATAILLE",-0.043115,44.853221
"Banque Populaire","Coopérative","63, AVE DE PARIS33620 CAVIGNAC",-0.389635,45.10023
"Banque Populaire","Coopérative","53, RUE CAMILLE PELLETAN33150 CENON",-0.519469,44.857787
"Banque Populaire","Coopérative","10 BIS, PLACE CHANOINE PATRY33610 CESTAS",-0.686551,44.740876
"Banque Populaire","Coopérative","6, PL DU CHÂTEAU33230 COUTRAS",-0.128771,45.040872
"Banque Populaire","Coopérative","31, RUE AMAURY DE CRAON33670 CREON",-0.347098,44.773572
"Banque Populaire","Coopérative","17, ALLÉE JAMES WATT33700 MERIGNAC",-0.673716,44.829725
"Banque Populaire","Coopérative","7, ALLÉES DE TOURNY33100 BORDEAUX",-0.575444,44.843975
"Banque Populaire","Coopérative","67, AVE DE SAINT MÉDARD33320 EYSINES",-0.642307,44.861311
"Banque Populaire","Coopérative","RÉSIDENCE LE CENTRE SAINT HILAIRE33370 FARGUES ST HILAIRE",-0.444173,44.824569
"Banque Populaire","Coopérative","5, AVE DU PRÉSIDENT FRANÇOIS MITTERAND33270 FLOIRAC",-0.526883,44.830431
"Banque Populaire","Coopérative","92, COURS DU GÉNÉRAL DE GAULLE33170 GRADIGNAN",-0.612414,44.774568
"Banque Populaire","Coopérative","4, COURS DE VERDUN33470 GUJAN MESTRAS",-1.071573,44.636572
"Banque Populaire","Coopérative","78, COURS DE LA RÉPUBLIQUE33470 GUJAN-MESTRAS",-1.062717,44.638812
"Banque Populaire","Coopérative","4, AVE DU GÉNÉRAL DE GAULLE33650 LA BREDE",1.209722,46.819571
"Banque Populaire","Coopérative","FRIMONT OUEST - RN 11333190 LA REOLE",-0.066351,44.584878
"Banque Populaire","Coopérative","2, AVE DE VERDUN33260 LA TESTE DE BUCH",-1.152513,44.538036
"Banque Populaire","Coopérative","12, PL KENNEDY33210 LANGON",-0.248999,44.552765
"Banque Populaire","Coopérative","157, AVE DE LA LIBÉRATION33110 LE BOUSCAT",-0.600037,44.860905
"Banque Populaire","Coopérative","9, PL AMPÈRE33110 LE BOUSCAT",-0.584555,44.862669
"Banque Populaire","Coopérative","RÉSIDENCE LES MÉTÉORESPL FRANÇOIS MITTERRAND33185 LE HAILLAN",-0.677113,44.872882
"Banque Populaire","Coopérative","22,COURS DU MARECHAL LECLERC33850 LEOGNAN",-0.600277,44.730895
"Banque Populaire","Coopérative","1, COURS GEORGES MANDEL33340 LESPARRE MEDOC",-0.938792,45.310791
"Banque Populaire","Coopérative","29, PL DESCAZES33500 LIBOURNE",-0.239426,44.916122
"Banque Populaire","Coopérative","1, AVE AQUITAINE33380 MARCHEPRIME",-0.854575,44.692617
"Banque Populaire","Coopérative","245-247, AVE DE LA MARNE33700 MERIGNAC",-0.632362,44.835136
"Banque Populaire","Coopérative","2, ALLÉE DES CONVIVIALESCTRE CIAL PEYCHOTTE33700 MERIGNAC",-0.657744,44.85728
"Banque Populaire","Coopérative","466, AVE DE VERDUN33700 MERIGNAC",-0.644345,44.841254
"Banque Populaire","Coopérative","34, PLACE ROBERT DARNICHE33580 MONSEGUR",0.080716,44.650424
"Banque Populaire","Coopérative","4, ESPACE FRANÇOIS MITTERAND33290 PAREMPUYRE",-0.604753,44.947291
"Banque Populaire","Coopérative","45, AVE DU GÉNÉRAL LECLERC33600 PESSAC",-0.668307,44.79512
"Banque Populaire","Coopérative","63, AVE JEAN JAURÈS33600 PESSAC",-0.623656,44.809062
"Banque Populaire","Coopérative","21, PLACE DE LA REPUBLIQUE33540 SAUVETERRE DE GUYENNE",-0.086439,44.693129
"Banque Populaire","Coopérative","6, RUE TROUCHE33780 SOULAC-SUR-MER",-1.125994,45.514514
"Banque Populaire","Coopérative","69, RUE E DANTAGNAN33240 ST ANDRE DE CUBZAC",-0.448788,44.992588
"Banque Populaire","Coopérative","98 AVENUE DE LA REPUBLIQUE33820 ST CIERS SUR GIRONDE",-0.610721,45.290521
"Banque Populaire","Coopérative","3 BIS, PLACE MARCADIEU33330 ST EMILION",-0.155461,44.895062
"Banque Populaire","Coopérative","180-192, AVE DU LAS33127 ST JEAN D'ILLAC",-0.806844,44.805329
"Banque Populaire","Coopérative","70, AVE DE LA RÉPUBLIQUE33450 ST LOUBES",-0.427974,44.91713
"Banque Populaire","Coopérative","22, AVE MONTESQUIEU33160 ST MEDARD EN JALLES",-0.715526,44.895303
"Banque Populaire","Coopérative","64, RUE DE LA RÉPUBLIQUE33220 STE FOY LA GRANDE",0.2168,44.841906
"Banque Populaire","Coopérative","309, COURS DE LA LIBÉRATION33400 TALENCE",-0.591311,44.811257
"Banque Populaire","Coopérative","RUE PACARIS33400 TALENCE",-0.582191,44.798533
"Banque Populaire","Coopérative","2, RUE JEAN BONNARDELBÂTIMENT A RÉSIDENCE TOPAZE33140 VILLENAVE D'ORNON",-0.578414,44.76898
"Banque Populaire","Coopérative","6, AVENUE DU GRAND LARGE34300 AGDE",3.486905,43.303786
"Banque Populaire","Coopérative","4, AVENUE DE LA VOIE DOMITIENNECENTRE COMMERCIAL AUCHAN34500 BEZIERS",3.242917,43.346828
"Banque Populaire","Coopérative","PARC LE BALIUSRUE DES ECOLES34670 BAILLARGUES",4.009135,43.659219
"Banque Populaire","Coopérative","CENTRE BALARUC LOISIRSZONE DE COLOMBET34540 BALARUC LE VIEUX",3.690555,43.464594
"Banque Populaire","Coopérative","30, PLACE JEAN JAURES34500 BEZIERS",3.216381,43.342017
"Banque Populaire","Coopérative","15, AVENUE DU DR J.M. FABRE34500 BEZIERS",3.226798,43.352664
"Banque Populaire","Coopérative","PLACE JEAN JAURES34310 CAPESTANG",3.044536,43.328285
"Banque Populaire","Coopérative","AVENUE DE L'AUBE ROUGEZAC DE L'AUBE ROUGE34170 CASTELNAU LE LEZ",3.926567,43.638262
"Banque Populaire","Coopérative","33, AVENUE DE MONTPELLIER34160 CASTRIES",3.983381,43.675532
"Banque Populaire","Coopérative","RUE DE GRENACHEZAC VALLEE DE L'HERAULT34800 CLERMONT L HERAULT",3.434779,43.626955
"Banque Populaire","Coopérative","ZAE LES CANTEGALSRUE DES ANCIENNES CARRIERES34440 COLOMBIERS",3.167835,43.309425
"Banque Populaire","Coopérative","210, RUE DE LA BILIEREZAE DU FRIGOULET34660 COURNONSEC",3.710874,43.552826
"Banque Populaire","Coopérative","31, AVENUE JEAN JAURES34510 FLORENSAC",3.464305,43.383916
"Banque Populaire","Coopérative","15, BOULEVARD GAMBETTA34110 FRONTIGNAN",3.756287,43.447411
"Banque Populaire","Coopérative","16, PLACE REPUBLIQUE34770 GIGEAN",3.71137,43.50019
"Banque Populaire","Coopérative","3, BOULEVARD DE L'ESPLANADE34150 GIGNAC",3.552923,43.653036
"Banque Populaire","Coopérative","ZONE CLEMENT ADERRUE LOUIS BREGUET34830 JACOU",-1.649026,47.378007
"Banque Populaire","Coopérative","INTER CENTREROUTE DE ST GEORGES D'ORQUE34990 JUVIGNAC",3.806817,43.611865
"Banque Populaire","Coopérative","55, AVENUE MELGUEILIMMEUBLE H2034280 LA GRANDE MOTTE",4.086608,43.562822
"Banque Populaire","Coopérative","21, AVENUE SERGENTSLE CAP D'AGDE34300 AGDE",3.456346,43.28274
"Banque Populaire","Coopérative","190, BOULEVARD LAFAYETTE34401 LUNEL",4.134026,43.677142
"Banque Populaire","Coopérative","25, BOULEVARD LAMARTINE34340 MARSEILLAN",3.527754,43.354915
"Banque Populaire","Coopérative","87, BOULEVARD DE LA REPUBLIQUE34130 MAUGUIO",4.01165,43.616389
"Banque Populaire","Coopérative","37, RUE SADI CARNOT34140 MEZE",3.607431,43.426038
"Banque Populaire","Coopérative","67, RUE DUGAY - TROUIN34000 MONTPELLIER",3.837723,43.625202
"Banque Populaire","Coopérative","14, BOULEVARD VICTOR HUGO34000 MONTPELLIER",3.878439,43.607037
"Banque Populaire","Coopérative","170, RUE RAIMON DE TRENCAVEL34078 MONTPELLIER CEDEX 3",3.858865,43.590124
"Banque Populaire","Coopérative","7, RUE DORIA34000 MONTPELLIER",3.868031,43.607826
"Banque Populaire","Coopérative","117, AVENUE DE PALAVAS34070 MONTPELLIER",3.890248,43.591136
"Banque Populaire","Coopérative","9, ALLÉE JACQUES BREL34470 PEROLS",3.951711,43.562701
"Banque Populaire","Coopérative","5, PLACE DE LA REPUBLIQUE34120 PEZENAS",3.42314,43.459824
"Banque Populaire","Coopérative","4, RUE MARCEL PALAT34560 POUSSAN",3.670932,43.485586
"Banque Populaire","Coopérative","3, BOULEVARD VICTOR HUGO34620 PUISSERGUIER",3.040634,43.368544
"Banque Populaire","Coopérative","35, RUE DES LAVANDINS34980 SAINT GELY DU FESC",3.806828,43.695891
"Banque Populaire","Coopérative","1, RUE FON DE L HOSPITAL34430 SAINT JEAN DE VEDAS",3.831133,43.577998
"Banque Populaire","Coopérative","108, AVENUE DE LA PLAGE34410 SERIGNAN",3.281852,43.279944
"Banque Populaire","Coopérative","10, RUE GENERAL DE GAULLE34200 SETE",3.69564,43.404182
"Banque Populaire","Coopérative","86, PLACE EDOUARD HERRIOT34200 SETE",3.676905,43.394774
"Banque Populaire","Coopérative","AVENUE JEAN MANZANERA34450 VIAS",3.415773,43.311994
"Banque Populaire","Coopérative","55, RTE DE SÈTERÉSIDENCE LA TREILLE34300 AGDE",3.481295,43.310741
"Banque Populaire","Coopérative","LES GRANDS CAYRETSBD MAURICE PACULL34300 AGDE",3.457501,43.327039
"Banque Populaire","Coopérative","4, BD DE MONACO34300 AGDE",3.477857,43.310317
"Banque Populaire","Coopérative","4, SQUARE DES VOLONTAIRES BITERROISCOMPLEXE IMMOBILIER LA TREILLE34500 BEZIERS",3.225818,43.354397
"Banque Populaire","Coopérative","3, CARREFOUR DE L'HOURS - LOT 103CC POLYGONE BÉZIERS34500 BEZIERS",3.225113,43.336069
"Banque Populaire","Coopérative","7, AVE PIERRE VERDIERLES TUILERIES34500 BEZIERS",3.236723,43.345392
"Banque Populaire","Coopérative","ROND POINT NEIL ALDEN AMSTRONG34500 BEZIERS",3.225061,43.336226
"Banque Populaire","Coopérative","130, RUE DE LA JASSE DE MAURIN34070 MONTPELLIER",3.863571,43.581235
"Banque Populaire","Coopérative","ZA AUBE ROUGE34170 CASTELNAU LE LEZ",3.905699,43.652803
"Banque Populaire","Coopérative","RÉSIDENCE LE CLOS DE LE MADELEINE34800 CLERMONT L'HERAULT",3.436812,43.623299
"Banque Populaire","Coopérative","225, AVENUE DE POMPIGNANE34000 MONTPELLIER",3.898301,43.606819
"Banque Populaire","Coopérative","52, RUE DE SYRACUSSE34000 MONTPELLIER",3.901208,43.614586
"Banque Populaire","Coopérative","25, AVE DU GÉNÉRAL DE GAULLE34110 FRONTIGNAN",3.754911,43.44772
"Banque Populaire","Coopérative","93 AV. DU MARÉCHAL JUIN, 34110 FRONTIGNAN",3.735311,43.433038
"Banque Populaire","Coopérative","24, RUE PASTEUR34190 GANGES",3.706047,43.934748
"Banque Populaire","Coopérative","ZAE LA CROIXAVENUE PIERRE MENDÈS FRANCE34150 GIGNAC",3.544644,43.651383
"Banque Populaire","Coopérative","AVENUE PIERRE BÉRÉGOVOY34420 VILLENEUVE LES BEZIERS",3.272369,43.32181
"Banque Populaire","Coopérative","RUE DE LA PIERRE PLANTÉE LIEUDIT LA PLAINE, CTRE CIAL ESPACE DE BOCAUD, 34830 JACOU",3.902577,43.660384
"Banque Populaire","Coopérative","ALLÉE DE L'EUROPE34990 JUVIGNAC",3.807465,43.613722
"Banque Populaire","Coopérative","34, RUE FRÉDÉRIC MISTRAL34280 LA GRANDE MOTTE",4.088166,43.559397
"Banque Populaire","Coopérative","650, AVE DE MONTPELLIER34970 LATTES",3.904575,43.568711
"Banque Populaire","Coopérative","40, AVE DU VIDOURLE34400 LUNEL",4.145314,43.680354
"Banque Populaire","Coopérative","CTRE CIAL34400 LUNEL",0.252393,47.177453
"Banque Populaire","Coopérative","8, PL JULES FERRY34130 MAUGUIO",4.007465,43.615989
"Banque Populaire","Coopérative","2, BD PAUL VALÉRY34140 MEZE",3.601688,43.424481
"Banque Populaire","Coopérative","211, RUE MARIUS CARRIEU34080 MONTPELLIER",3.84157,43.616442
"Banque Populaire","Coopérative","20, BD DES ARCEAUX34000 MONTPELLIER",3.864795,43.61193
"Banque Populaire","Coopérative","34, AVE EMILE DIACON34000 MONTPELLIER",3.861458,43.628975
"Banque Populaire","Coopérative","737, ROUTE DE MENDE34000 MONTPELLIER",3.869784,43.629136
"Banque Populaire","Coopérative","11, PL DE LA COMÉDIE34000 MONTPELLIER",3.880495,43.608693
"Banque Populaire","Coopérative","7, AVE DE NÎMES34000 MONTPELLIER",3.883332,43.615169
"Banque Populaire","Coopérative","RUE DU FENOUILZAC ST ANTOINE34130 SAINT-AUNES",3.9776,43.65115
"Banque Populaire","Coopérative","232, AVE DES MOULINS34000 MONTPELLIER",3.845361,43.637545
"Banque Populaire","Coopérative","26, BD DU JEU DE PAUME34000 MONTPELLIER",3.874499,43.607228
"Banque Populaire","Coopérative","25, RUE GUILLAUME JANVIERCTRE CIAL POINT 200034070 MONTPELLIER",3.865731,43.596336
"Banque Populaire","Coopérative","145, AVE DE LA JUSTICE DE CASTELNAU34090 MONTPELLIER",3.871603,43.627071
"Banque Populaire","Coopérative","265, AVE DES ETATS DU LANGUEDOCCTRE CIAL34045 MONTPELLIER",3.884824,43.607758
"Banque Populaire","Coopérative","RÉSIDENCE GALLIARUE DE SYRACUSE34000 MONTPELLIER",3.735511,43.601253
"Banque Populaire","Coopérative","47, AVE DE LA POMPIGNANERÉSIDENCE ARTEMIS34000 MONTPELLIER",3.898264,43.606473
"Banque Populaire","Coopérative","79, AVE DE PALAVAS34000 MONTPELLIER",3.887787,43.595941
"Banque Populaire","Coopérative","396-418, RUE DU MAS DE VERCHANTPARC EUREKA34000 MONTPELLIER",3.913391,43.619873
"Banque Populaire","Coopérative","LES GALLINESAVE GEORGES FRÊCHE34470 PEROLS",3.939873,43.575931
"Banque Populaire","Coopérative","28, AVE DU MARÉCHAL LECLERC34120 PEZENAS",3.426939,43.459364
"Banque Populaire","Coopérative","18, RUE DU 8 MAI 194534200 SETE",3.695291,43.405104
"Banque Populaire","Coopérative","CTRE CIALBD CAMILLE BLANC34200 SETE",3.667546,43.407063
"Banque Populaire","Coopérative","77, GRAND RUE MARIO ROUSTAN34200 SETE",3.696235,43.399062
"Banque Populaire","Coopérative","16, QUAI DE LATTRE DE TASSIGNY34200 SETE",3.696482,43.405142
"Banque Populaire","Coopérative","CTRE CIAL - ZAC DES VAUTESRD 98634980 ST GELY DU FESC",3.831379,43.674898
"Banque Populaire","Coopérative","2, PLACE CLARA D'ANDUZERÉSIDENCE VEDACIO34430 SAINT JEAN DE VEDAS",3.829887,43.574974
"Banque Populaire","Coopérative","AVE DE LA RÉPUBLIQUE DE MONTFERRAND34270 ST MATHIEU DE TREVIERS",3.864592,43.761035
"Banque Populaire","Coopérative","ZAE PÔLE MÉDITERRANÉEAVE PIERRE BÉRÉGOVOY34420 VILLENEUVE-LES-BEZIERS",3.288727,43.32352
"Banque Populaire","Coopérative","33, BOULEVARD DE LA RÉPUBLIQUE35400 SAINT MALO",-2.008193,48.649038
"Banque Populaire","Coopérative","15, BOULEVARD DE LA BOUTIÈRE35768 SAINT-GREGOIRE",-1.696443,48.146639
"Banque Populaire","Coopérative","8, PL HENRI IV35470 BAIN DE BRETAGNE",-1.679673,47.843228
"Banque Populaire","Coopérative","1, AVE DE LA HAYE RENAUD35830 BETTON",-1.635789,48.180791
"Banque Populaire","Coopérative","8, PL MARCEL PAGNOL35170 BRUZ",-1.7453,48.024134
"Banque Populaire","Coopérative","38, RUE DU PORT35260 CANCALE",-1.851775,48.675925
"Banque Populaire","Coopérative","5 BIS, MAIL DE BOURGCHEVREUIL35510 CESSON SEVIGNE",-1.606411,48.117806
"Banque Populaire","Coopérative","3, PL DE L'EGLISE35135 CHANTEPIE",-1.617451,48.088475
"Banque Populaire","Coopérative","4, RUE DE BEL AIR35220 CHATEAUBOURG",-1.404654,48.107286
"Banque Populaire","Coopérative","3, PL SAINT GILDUIN35270 COMBOURG",-1.748947,48.410774
"Banque Populaire","Coopérative","11, AVE EDOUARD VII35800 DINARD",-2.058547,48.633265
"Banque Populaire","Coopérative","19, PL TOULLIER35120 DOL DE BRETAGNE",-1.756822,48.549735
"Banque Populaire","Coopérative","1, BD DU MARÉCHAL LECLERC35300 FOUGERES",-1.200661,48.354832
"Banque Populaire","Coopérative","56, RUE DU GÉNÉRAL LECLERC35580 GUICHEN",-1.796832,47.966372
"Banque Populaire","Coopérative","20, RUE ARISTIDE BRIAND35150 JANZE",-1.497507,47.958751
"Banque Populaire","Coopérative","34, RUE DE FOUGÈRES35340 LIFFRE",-1.504246,48.214872
"Banque Populaire","Coopérative","2, RUE DE FOUGÈRES35460 MAEN ROCH",-1.365745,48.410366
"Banque Populaire","Coopérative","25, RUE SAINT NICOLAS35160 MONTFORT SUR MEU",-1.952874,48.138386
"Banque Populaire","Coopérative","10, PL SAINT PIERRE35310 MORDELLES",-1.850289,48.072052
"Banque Populaire","Coopérative","2, AVE CHARLES LE GOFFIC35740 PACE",-1.77782,48.15001
"Banque Populaire","Coopérative","8, PL DE BRETAGNE35600 REDON",-2.084138,47.651936
"Banque Populaire","Coopérative","CTRE CIAL ALMA CITYRUE DU BOSPHORE35200 RENNES",-1.675912,48.099415
"Banque Populaire","Coopérative","31, AVE JANVIER35000 RENNES",-1.643314,48.108021
"Banque Populaire","Coopérative","82, RUE DE LORIENT35000 RENNES",2.330065,48.850642
"Banque Populaire","Coopérative","122, RUE DE FOUGÈRES35700 RENNES",2.326516,48.846784
"Banque Populaire","Coopérative","8, PL. DU PARLEMENT35000 RENNES",-1.677249,48.112267
"Banque Populaire","Coopérative","258 BIS, RUE DE NANTES35136 ST JACQUES DE LA LANDE",-1.692177,48.091567
"Banque Populaire","Coopérative","5, PL DE LA TRINITÉ35000 RENNES",-1.683355,48.11245
"Banque Populaire","Coopérative","1, RUE DE LA DUCHESSE ANNE35760 ST GREGOIRE",-1.685601,48.152063
"Banque Populaire","Coopérative","CTRE CIALRTE DE SAINT MALO35760 ST GREGOIRE",2.260292,48.176005
"Banque Populaire","Coopérative","3, RUE PORCON35400 ST MALO",-1.994999,48.631065
"Banque Populaire","Coopérative","13, RUE ROBERT SCHUMAN35400 ST MALO",-1.985509,48.658203
"Banque Populaire","Coopérative","32, RUE VILLE PÉPIN35400 ST MALO",-2.014811,48.63626
"Banque Populaire","Coopérative","4, BD SAINT MARTIN35500 VITRE",-1.209138,48.123252
"Banque Populaire","Coopérative","19, RUE GAMBETTA36200 ARGENTON SUR CREUSE",1.518597,46.58955
"Banque Populaire","Coopérative","2, RUE DE LA RÉPUBLIQUE36000 CHATEAUROUX",1.691034,46.810642
"Banque Populaire","Coopérative","46, PL VOLTAIRE36000 CHATEAUROUX",1.699884,46.810772
"Banque Populaire","Coopérative","75, AVE DU GÉNÉRAL DE GAULLE36130 DEOLS",1.701108,46.828018
"Banque Populaire","Coopérative","15, BD MARX DORMOY36100 ISSOUDUN",1.992453,46.949982
"Banque Populaire","Coopérative","RUE PIERRE COLIN DE SOUVIGNY36300 LE BLANC",1.062591,46.63167
"Banque Populaire","Coopérative","16, PL DE LA RÉPUBLIQUE36110 LEVROUX",1.612142,46.978656
"Banque Populaire","Coopérative","49, AVE DE L'OCCITANIE36250 SAINT MAUR",2.505744,48.804661
"Banque Populaire","Coopérative","14, PL DE LA RÉPUBLIQUE36150 VATAN",1.809601,47.071045
"Banque Populaire","Coopérative","10, QUAI DU GÉNÉRAL DE GAULLE37400 AMBOISE",0.981999,47.412379
"Banque Populaire","Coopérative","20, RUE DU GÉNÉRAL LECLERC37510 BALLAN MIRE",0.615659,47.341923
"Banque Populaire","Coopérative","1, PL CHARLES BIDAULT37150 BLERE",0.991659,47.3284
"Banque Populaire","Coopérative","CENTRE CCIAL LA GRANDE PRAIRIE37140 BOURGUEIL",0.169384,47.274712
"Banque Populaire","Coopérative","3/5, RUE THOMAS EDISONZAC DE LA VRILLONNERIE37170 CHAMBRAY LES TOURS",0.702348,47.33821
"Banque Populaire","Coopérative","3-5, PL JEAN JAURÈS37110 CHATEAU RENAULT",-1.041774,47.843474
"Banque Populaire","Coopérative","94, QUAI JEANNE D'ARC37500 CHINON",0.243279,47.165339
"Banque Populaire","Coopérative","13 BIS, RUE DU COMMERCE37160 DESCARTES",0.697263,46.973116
"Banque Populaire","Coopérative","8, RUE EUGÈNE GOUIN37230 FONDETTES",0.596789,47.403491
"Banque Populaire","Coopérative","2, AVE VICTOR HUGO37300 JOUE LES TOURS",0.665086,47.351049
"Banque Populaire","Coopérative","25, PL SAINTE ANNE37520 LA RICHE",0.66651,47.391006
"Banque Populaire","Coopérative","1, PL LÉON BOYER37130 LANGEAIS",0.408678,47.325986
"Banque Populaire","Coopérative","8, RUE DE LA RÉPUBLIQUE37600 LOCHES",0.997875,47.128535
"Banque Populaire","Coopérative","1, PL DU 11 NOVEMBRE37270 MONTLOUIS SUR LOIRE",0.827308,47.3878
"Banque Populaire","Coopérative","27, PL DU MARCHÉ37120 RICHELIEU",0.324421,47.01192
"Banque Populaire","Coopérative","27, RUE ROCHEPINARD37550 ST AVERTIN",0.726469,47.36822
"Banque Populaire","Coopérative","72, AVE DE LA RÉPUBLIQUE37540 ST CYR SUR LOIRE",0.666961,47.40397
"Banque Populaire","Coopérative","13, PL MAURICE THOREZCTRE CIAL DE LA MAIRIE37700 ST PIERRE DES CORPS",0.71876,47.389325
"Banque Populaire","Coopérative","CTRE CIALAVE JACQUES DUCLOS37700 ST PIERRE DES CORPS",0.73299,47.38094
"Banque Populaire","Coopérative","107, RUE DU DOCTEUR PATRY37800 STE MAURE DE TOURAINE",0.619077,47.111698
"Banque Populaire","Coopérative","7, PLACE JEAN JAURÈS37000 TOURS",4.832504,45.066287
"Banque Populaire","Coopérative","GALERIE MARCHANDE DES HALLESPL GASTON PAILHOU37000 TOURS",-0.463165,44.848004
"Banque Populaire","Coopérative","36, AVE MARCEL DASSAULT37000 TOURS",0.681036,47.363526
"Banque Populaire","Coopérative","2, AVE DE MILAN37200 TOURS",2.595818,48.745094
"Banque Populaire","Coopérative","40, AVE ANDRÉ MAGINOT37100 TOURS",0.682834,47.410434
"Banque Populaire","Coopérative","23, RUE NATIONALE37000 TOURS",-0.573142,44.850792
"Banque Populaire","Coopérative","CTRE CIAL37100 TOURS",1.039435,46.803739
"Banque Populaire","Coopérative","117, AVE DE GRAMMONT37000 TOURS",0.985335,44.479152
"Banque Populaire","Coopérative","27, PL VELPEAU37000 TOURS",3.158408,50.722589
"Banque Populaire","Coopérative","13, COURS JEAN JAURÈS38000 GRENOBLE",5.720042,45.189815
"Banque Populaire","Coopérative","18, RUE JOSEPH CUGNOT38300 BOURGOIN JALLIEU",5.260603,45.587411
"Banque Populaire","Coopérative","196, RUE DU ROCHER DE LORZIERCENTR'ALP38430 MOIRANS",5.59237,45.320906
"Banque Populaire","Coopérative","445, RUE LAVOISIERINOVALLEE38330 MONTBONNOT ST MARTIN",5.813168,45.216736
"Banque Populaire","Coopérative","2, AVE DU GRÉSIVAUDAN38700 CORENC",5.765804,45.212551
"Banque Populaire","Coopérative","6-8, PL MATUSSIÈRE38420 DOMENE",2.329508,49.028315
"Banque Populaire","Coopérative","4, AVE ESCLANGON38610 GIERES",5.783769,45.181229
"Banque Populaire","Coopérative","1, AVE GAMBETTA38300 BOURGOIN JALLIEU",5.273114,45.585901
"Banque Populaire","Coopérative","14, RUE DE LA LIBÉRATION38300 BOURGOIN-JALLIEU",5.278503,45.589448
"Banque Populaire","Coopérative","1, RUE DU TRIÈVES38800 LE PONT DE CLAIX",5.69659,45.121259
"Banque Populaire","Coopérative","57, PL DU CHÂTEAU38220 VIZILLE",5.772645,45.074935
"Banque Populaire","Coopérative","10 BIS, RUE DE L'ABBÉ GRÉGOIRE38000 GRENOBLE",5.712,45.185299
"Banque Populaire","Coopérative","6-8, RUE MALAKOFF38000 GRENOBLE",5.737819,45.189055
"Banque Populaire","Coopérative","3, PL NOTRE DAME38000 GRENOBLE",5.73134,45.19285
"Banque Populaire","Coopérative","15, RUE DE LA POSTE38000 GRENOBLE",5.727707,45.18919
"Banque Populaire","Coopérative","26, RUE BERTHE DE BOISSIEUX38000 GRENOBLE",5.721972,45.183781
"Banque Populaire","Coopérative","37, RUE DES DÉPORTÉS 11 NOVEMBRE38100 GRENOBLE",5.727368,45.177131
"Banque Populaire","Coopérative","6, PL ALFRED BERTHET38920 CROLLES",5.881322,45.283855
"Banque Populaire","Coopérative","501, RTE DE CHAMBÉRY38330 ST ISMIER",5.823539,45.2419
"Banque Populaire","Coopérative","19, AVE CHION DUCOLLET38350 LA MURE",5.787177,44.904954
"Banque Populaire","Coopérative","455, AVE LESDIGUIÈRES38290 LA VERPILLIERE",5.144314,45.635978
"Banque Populaire","Coopérative","32 BIS, AVE DU VERCORSL'ARCELLE38600 FONTAINE",4.070173,49.081825
"Banque Populaire","Coopérative","4 BIS, AVE DU GÉNÉRAL DE GAULLE38120 ST EGREVE",5.682307,45.230377
"Banque Populaire","Coopérative","2, BD DES ALPES38240 MEYLAN",5.761861,45.202423
"Banque Populaire","Coopérative","4, AVE VICTOR HUGO38170 SEYSSINET PARISET",5.694048,45.179241
"Banque Populaire","Coopérative","110, RUE DE LA LIBERTÉ38180 SEYSSINS",5.696431,45.16085
"Banque Populaire","Coopérative","15, AVE DE LA RÉPUBLIQUE38520 BOURG D'OISANS",6.029871,45.05461
"Banque Populaire","Coopérative","CTRE DE JOUR DES BERGERSAVE DES MARMOTTES38750 L'ALPE D'HUEZ",6.038075,45.063681
"Banque Populaire","Coopérative","22, AVE DE LA MUZELLERÉSIDENCE LES CROCUS38860 LES DEUX ALPES",6.125166,45.017161
"Banque Populaire","Coopérative","110, RUE DE LA RÉPUBLIQUE38550 LE PEAGE DE ROUSSILLON",4.798991,45.372051
"Banque Populaire","Coopérative","7, RUE JONCHAINZAC DU JONCHAIN38150 SALAISE-SUR-SANNE",4.823165,45.340291
"Banque Populaire","Coopérative","101, RUE DE LA RÉPUBLIQUE38140 RIVES",5.5009,45.34904
"Banque Populaire","Coopérative","43, RUE DU MAIL38500 VOIRON",5.591385,45.363089
"Banque Populaire","Coopérative","RUE LOUIS LE PRINCE RINGUETZA LES BLANCHISSERIES38505 VOIRON",5.595538,45.365663
"Banque Populaire","Coopérative","27, RUE CENTRALE38230 PONT DE CHERUY",5.17401,45.751005
"Banque Populaire","Coopérative","54, GRANDE RUE38160 ST MARCELLIN",5.319888,45.152704
"Banque Populaire","Coopérative","31, RUE NORMANDIE NIEMENIMMEUBLE LE PALADIO38130 ECHIROLLES",5.719989,45.148346
"Banque Populaire","Coopérative","142, AVE JEAN JAURÈS38320 EYBENS",5.750275,45.149423
"Banque Populaire","Coopérative","5-7, RUE BEETHOVENCENTRE HERMITAGE38400 ST MARTIN D'HERES",5.752205,45.164646
"Banque Populaire","Coopérative","1, PL ANTONIN DUBOST38110 LA TOUR DU PIN",5.445433,45.563954
"Banque Populaire","Coopérative","2-4, RUE VICTOR HUGO38490 LES ABRETS",5.585578,45.537493
"Banque Populaire","Coopérative","8, PL DE MIREMONT38200 VIENNE",4.880632,45.527262
"Banque Populaire","Coopérative","RUE DU CENTREIMMEUBLE LES ERABLES38780 ESTRABLIN",4.946637,45.490242
"Banque Populaire","Coopérative","164, AVE DU GÉNÉRAL DE GAULLE38250 VILLARD DE LANS",5.552192,45.072133
"Banque Populaire","Coopérative","13, RUE DE L'HÔTEL DE VILLE39600 ARBOIS",5.772434,46.902585
"Banque Populaire","Coopérative","2, PL DE LA FONTAINE39240 ARINTHOD",5.56617,46.393301
"Banque Populaire","Coopérative","36, RUE LOUIS LE GRAND39140 BLETTERANS",5.453882,46.746041
"Banque Populaire","Coopérative","23, AVE DE LA RÉPUBLIQUE39300 CHAMPAGNOLE",5.909209,46.744765
"Banque Populaire","Coopérative","PL DU 11 NOVEMBRE39120 CHAUSSIN",5.406599,46.967688
"Banque Populaire","Coopérative","52, GRANDE RUE39130 CLAIRVAUX LES LACS",5.75007,46.576114
"Banque Populaire","Coopérative","2 TER, RUE DU MARCHÉST LUPICIN39170 COTEAUX DU LIZON",5.792153,46.399274
"Banque Populaire","Coopérative","PL DU 1ER MAI39500 DAMPARIS",5.413486,47.070084
"Banque Populaire","Coopérative","65, RUE DES ARÈNES39100 DOLE",5.489758,47.090177
"Banque Populaire","Coopérative","11, PL JULES GRÉVY39100 DOLE",5.496012,47.094757
"Banque Populaire","Coopérative","61 A, GRANDE RUE39460 FONCINE LE HAUT",6.083335,46.665332
"Banque Populaire","Coopérative","157, RUE DE LA RÉPUBLIQUEMOREZ39400 HAUTS DE BIENNE",6.023967,46.519041
"Banque Populaire","Coopérative","1, PL CENTRALE39220 LES ROUSSES",6.059446,46.48519
"Banque Populaire","Coopérative","38, RUE DU COMMERCE39000 LONS LE SAUNIER",5.55348,46.674824
"Banque Populaire","Coopérative","545, AVE D'OFFENBOURG39000 LONS LE SAUNIER",5.571827,46.679126
"Banque Populaire","Coopérative","72, COURS SULLY39000 LONS LE SAUNIER",5.546058,46.674161
"Banque Populaire","Coopérative","2, RUE PASTEUR39260 MOIRANS EN MONTAGNE",5.72565,46.430908
"Banque Populaire","Coopérative","21, RUE DE LA RÉPUBLIQUE39330 MOUCHARD",5.799078,46.976387
"Banque Populaire","Coopérative","3, RUE DE L'INDUSTRIE39270 ORGELET",5.607392,46.527931
"Banque Populaire","Coopérative","24, PL DES DÉPORTÉS39800 POLIGNY",5.708198,46.834328
"Banque Populaire","Coopérative","27-29, RUE DE LA RÉPUBLIQUE39110 SALINS LES BAINS",5.877358,46.937091
"Banque Populaire","Coopérative","4, PL GEORGES CLEMENCEAU39160 ST AMOUR",5.342787,46.435955
"Banque Populaire","Coopérative","13, BD DE LA RÉPUBLIQUE39200 ST CLAUDE",5.864058,46.392273
"Banque Populaire","Coopérative","6, PL PASTEUR39150 ST LAURENT EN GRANDVAUX",5.954639,46.575432
"Banque Populaire","Coopérative","184, AVE DE LA RÉPUBLIQUE39500 TAVAUX",5.412625,47.042301
"Banque Populaire","Coopérative","16 PLACE JOSEPH PANCAULT40000 MONT DE MARSAN",-0.502355,43.888985
"Banque Populaire","Coopérative","1, RUE GAMBETTA40800 AIRE SUR L'ADOUR",-0.262672,43.699973
"Banque Populaire","Coopérative","24, RUE JULES FERRY40600 BISCARROSSE",-1.166728,44.395243
"Banque Populaire","Coopérative","25, RUE SAINT VINCENT40100 DAX",-1.053032,43.708906
"Banque Populaire","Coopérative","COURS JULIA AUGUSTA40100 DAX",-1.050575,43.710508
"Banque Populaire","Coopérative","4, PL DU MOULIN40700 HAGETMAU",-0.593971,43.654838
"Banque Populaire","Coopérative","315, AVENUE DU TOURING CLUB40150 SOORTS HOSSEGOR",-1.427084,43.669043
"Banque Populaire","Coopérative","51, RUE DE LA POSTE40550 LEON",-1.302018,43.875021
"Banque Populaire","Coopérative","5, AVE DE BORDEAUX40200 MIMIZAN",-1.229051,44.202744
"Banque Populaire","Coopérative","49, RUE LÉON GAMBETTA40000 MONT DE MARSAN",-0.501093,43.889779
"Banque Populaire","Coopérative","740, AVE DU MARÉCHAL FOCH40000 MONT DE MARSAN",-0.489559,43.897094
"Banque Populaire","Coopérative","2, PL ARISTIDE BRIAND40110 MORCENX",-0.910489,44.033564
"Banque Populaire","Coopérative","264, PL ARISTIDE BRIAND40300 PEYREHORADE",-1.102592,43.545386
"Banque Populaire","Coopérative","16, RUE EMILE NOUGARO40140 SOUSTONS",-1.327749,43.754454
"Banque Populaire","Coopérative","3, AVE DE LA LIBERTÉ40990 ST PAUL LES DAX",-1.051363,43.723189
"Banque Populaire","Coopérative","9, RUE DU TRIBUNAL40500 ST SEVER",-0.573597,43.759881
"Banque Populaire","Coopérative","53, AVE NATIONALE40230 ST VINCENT DE TYROSSE",-1.304896,43.660542
"Banque Populaire","Coopérative","27, BD JACQUES DUCLOS40220 TARNOS",-1.460981,43.538341
"Banque Populaire","Coopérative","5 COURS SAINT JACQUES40400 TARTAS",-0.806898,43.832084
"Banque Populaire","Coopérative","7, RUE DENIS PAPIN41000 BLOIS",1.33536,47.586612
"Banque Populaire","Coopérative","1, RUE DU BOUT DES HAIES41000 BLOIS",1.327009,47.613428
"Banque Populaire","Coopérative","7, RUE COPERNIC41260 LA CHAUSSEE ST VICTOR",1.347992,47.615003
"Banque Populaire","Coopérative","5, PL DE LA HALLE41500 MER",2.088845,48.319273
"Banque Populaire","Coopérative","11, RUE CARNOT41400 MONTRICHARD",1.184243,47.343508
"Banque Populaire","Coopérative","39, RUE GEORGES CLEMENCEAU41200 ROMORANTIN LANTHENAY",1.744383,47.35938
"Banque Populaire","Coopérative","30-32, BD DE LA RÉPUBLIQUE41300 SALBRIS",2.052934,47.425907
"Banque Populaire","Coopérative","17, QUAI JACQUES DELORME41110 ST AIGNAN",1.376879,47.269822
"Banque Populaire","Coopérative","395, RUE GEORGES MÉLIÈS41350 ST GERVAIS LA FORET",1.373078,47.56494
"Banque Populaire","Coopérative","5-7, RUE DU GÉNÉRAL DE GAULLE41100 VENDOME",1.065203,47.791879
"Banque Populaire","Coopérative","2, RUE BLANQUI42000 SAINT ETIENNE",2.769709,50.289643
"Banque Populaire","Coopérative","2, RUE BLANQUI42000 ST ETIENNE",-2.321642,48.40918
"Banque Populaire","Coopérative","23, RUE DES MOULINS42190 CHARLIEU",4.169955,46.157304
"Banque Populaire","Coopérative","85, RUE JEAN JAURÈS42700 FIRMINY",4.286133,45.388407
"Banque Populaire","Coopérative","PL ANTOINE DRIVET42110 FEURS",4.221503,45.743862
"Banque Populaire","Coopérative","4, AVE DES SOURCES42210 MONTROND LES BAINS",4.231293,45.644055
"Banque Populaire","Coopérative","3, RUE VICTOR HUGO42350 LA TALAUDIERE",4.431674,45.480085
"Banque Populaire","Coopérative","15 BIS, AVE DE SAINT ETIENNE42160 ANDREZIEUX BOUTHEON",4.279768,45.545344
"Banque Populaire","Coopérative","QUARTIER SAINT RAMBERTRUE GONYN42170 ST JUST ST RAMBERT",4.253263,45.496546
"Banque Populaire","Coopérative","22, AVE IRÉNÉE LAURENT42340 VEAUCHE",4.296119,45.568828
"Banque Populaire","Coopérative","15, RUE SIMON BOYER42600 MONTBRISON",4.066876,45.606957
"Banque Populaire","Coopérative","90, RUE JEAN JAURÈS42800 RIVE DE GIER",4.620427,45.530737
"Banque Populaire","Coopérative","24, RUE DE LA RÉPUBLIQUE42400 ST CHAMOND",4.51306,45.477354
"Banque Populaire","Coopérative","19, RUE ALEXANDRE ROCHE42300 ROANNE",4.072792,46.041573
"Banque Populaire","Coopérative","46, RUE JEAN JAURÈS42300 ROANNE",4.074988,46.034464
"Banque Populaire","Coopérative","32, AVE DE LA LIBÉRATION42120 LE COTEAU",4.08337,46.0301
"Banque Populaire","Coopérative","43, RUE DE CLERMONT42300 ROANNE",4.066097,46.029257
"Banque Populaire","Coopérative","51, RUE MULSANT42300 ROANNE",4.058166,46.038531
"Banque Populaire","Coopérative","10, RUE ROBERT BARATHON42370 RENAISON",3.926875,46.051986
"Banque Populaire","Coopérative","27, PL FOURNEYRON42000 ST ETIENNE",4.395786,45.439781
"Banque Populaire","Coopérative","1, PL DE L'HÔTEL DE VILLE42000 ST ETIENNE",4.387883,45.439565
"Banque Populaire","Coopérative","10, RUE GAMBETTA42230 ROCHE LA MOLIERE",4.323759,45.433157
"Banque Populaire","Coopérative","20 BIS, PL MASSENET42000 ST ETIENNE",7.754675,48.583243
"Banque Populaire","Coopérative","4, PL GAMBETTA42390 VILLARS",4.353691,45.46867
"Banque Populaire","Coopérative","83, RUE BERGSON42000 ST ETIENNE",-2.321343,48.410073
"Banque Populaire","Coopérative","3, PL JACQUARD42000 ST ETIENNE",4.382054,45.441294
"Banque Populaire","Coopérative","2, RUE GABRIEL PÉRI42100 ST ETIENNE",4.393017,45.415577
"Banque Populaire","Coopérative","9, RUE DES DOCTEURS CHARCOT42100 ST ETIENNE",4.39218,45.422404
"Banque Populaire","Coopérative","118, RUE DE LA RICHELANDIÈRE42100 ST ETIENNE",4.41263,45.435821
"Banque Populaire","Coopérative","111, COURS FAURIEL42100 ST ETIENNE",4.410501,45.421923
"Banque Populaire","Coopérative","127, AVENUE CHARLES DUPUY43700 BRIVES CHARENSAC",3.918874,45.050569
"Banque Populaire","Coopérative","11, PL MICHELET43005 LE PUY EN VELAY",3.886171,45.040289
"Banque Populaire","Coopérative","46, RUE SAINT GILLES43000 LE PUY EN VELAY",3.882257,45.042181
"Banque Populaire","Coopérative","32, BD DU DOCTEUR DEVINS43100 BRIOUDE",3.382944,45.292136
"Banque Populaire","Coopérative","25, BD CHARLES DE GAULLE43300 LANGEAC",3.494494,45.099343
"Banque Populaire","Coopérative","2, AVE CHARLES DE GAULLE43120 MONISTROL SUR LOIRE",4.173483,45.292907
"Banque Populaire","Coopérative","1, RUE DE LA VICTOIRE43600 STE SIGOLENE",4.2342,45.242565
